{
  "type": "FeatureCollection",
  "features": [
    {
      "type": "Feature",
      "id": "道東-14fr96h",
      "geometry": {
        "type": "Point",
        "coordinates": [
          144.323502,
          43.230049
        ]
      },
      "properties": {
        "id": "道東-14fr96h",
        "name": "セイコーマート鶴居",
        "region": "道東",
        "category": "コンビニ",
        "color": "#2563eb",
        "address": "北海道阿寒郡鶴居村鶴居東１丁目１番１０"
      }
    },
    {
      "type": "Feature",
      "id": "道東-0b2gr4b",
      "geometry": {
        "type": "Point",
        "coordinates": [
          144.176468,
          43.321419
        ]
      },
      "properties": {
        "id": "道東-0b2gr4b",
        "name": "セイコーマート幌呂",
        "region": "道東",
        "category": "コンビニ",
        "color": "#2563eb",
        "address": "北海道阿寒郡鶴居村字幌呂原野南５線４１番地"
      }
    },
    {
      "type": "Feature",
      "id": "道東-1bg5rgr",
      "geometry": {
        "type": "Point",
        "coordinates": [
          144.176468,
          43.321419
        ]
      },
      "properties": {
        "id": "道東-1bg5rgr",
        "name": "ウッディホテル＆レストラン夢工房",
        "region": "道東",
        "category": "カフェ・レストラン",
        "color": "#db2777",
        "address": "北海道阿寒郡鶴居村字幌呂原野南４線３７－２０"
      }
    },
    {
      "type": "Feature",
      "id": "道東-1hcr9ur",
      "geometry": {
        "type": "Point",
        "coordinates": [
          144.322464,
          43.23288
        ]
      },
      "properties": {
        "id": "道東-1hcr9ur",
        "name": "カフェバンバンバン",
        "region": "道東",
        "category": "カフェ・レストラン",
        "color": "#db2777",
        "address": "北海道阿寒郡鶴居村鶴居西２丁目４−１"
      }
    },
    {
      "type": "Feature",
      "id": "道東-1nss7xs",
      "geometry": {
        "type": "Point",
        "coordinates": [
          144.32663,
          43.234081
        ]
      },
      "properties": {
        "id": "道東-1nss7xs",
        "name": "サンライトファーム",
        "region": "道東",
        "category": "カフェ・レストラン",
        "color": "#db2777",
        "address": "北海道阿寒郡鶴居村鶴居東３丁目１１－１"
      }
    },
    {
      "type": "Feature",
      "id": "道東-1b73l7s",
      "geometry": {
        "type": "Point",
        "coordinates": [
          144.204147,
          43.376213
        ]
      },
      "properties": {
        "id": "道東-1b73l7s",
        "name": "ドレミファ空",
        "region": "道東",
        "category": "カフェ・レストラン",
        "color": "#db2777",
        "address": "北海道阿寒郡鶴居村字雪裡原野北４線東１７－１８"
      }
    },
    {
      "type": "Feature",
      "id": "道東-10pl07g",
      "geometry": {
        "type": "Point",
        "coordinates": [
          144.204147,
          43.376213
        ]
      },
      "properties": {
        "id": "道東-10pl07g",
        "name": "ファームイントーチ",
        "region": "道東",
        "category": "カフェ・レストラン",
        "color": "#db2777",
        "address": "北海道阿寒郡鶴居村字雪裡原野北２６線西１３－３"
      }
    },
    {
      "type": "Feature",
      "id": "道東-1if3z7y",
      "geometry": {
        "type": "Point",
        "coordinates": [
          144.319199,
          43.233639
        ]
      },
      "properties": {
        "id": "道東-1if3z7y",
        "name": "カラオケパブ 金ちゃん家",
        "region": "道東",
        "category": "その他の飲食店（テイクアウト含む）",
        "color": "#e11d48",
        "address": "北海道阿寒郡鶴居村鶴居西６丁目４番地１"
      }
    },
    {
      "type": "Feature",
      "id": "道東-0mmjuu4",
      "geometry": {
        "type": "Point",
        "coordinates": [
          144.323502,
          43.230049
        ]
      },
      "properties": {
        "id": "道東-0mmjuu4",
        "name": "焼肉さるるん",
        "region": "道東",
        "category": "その他の飲食店（テイクアウト含む）",
        "color": "#e11d48",
        "address": "北海道阿寒郡鶴居村鶴居東１丁目１－９"
      }
    },
    {
      "type": "Feature",
      "id": "道東-0836ky7",
      "geometry": {
        "type": "Point",
        "coordinates": [
          144.261475,
          43.198658
        ]
      },
      "properties": {
        "id": "道東-0836ky7",
        "name": "食堂大和",
        "region": "道東",
        "category": "その他の飲食店（テイクアウト含む）",
        "color": "#e11d48",
        "address": "北海道阿寒郡鶴居村幌呂西４丁目２２－４"
      }
    },
    {
      "type": "Feature",
      "id": "道東-1kncgq5",
      "geometry": {
        "type": "Point",
        "coordinates": [
          144.176468,
          43.321419
        ]
      },
      "properties": {
        "id": "道東-1kncgq5",
        "name": "ボディ・メイク",
        "region": "道東",
        "category": "レジャー・スポーツ・フィットネス",
        "color": "#0d9488",
        "address": "北海道阿寒郡鶴居村字幌呂原野南５線４３番８５"
      }
    },
    {
      "type": "Feature",
      "id": "道東-0f82f29",
      "geometry": {
        "type": "Point",
        "coordinates": [
          144.176468,
          43.321419
        ]
      },
      "properties": {
        "id": "道東-0f82f29",
        "name": "氣功療術院シンメトリー",
        "region": "道東",
        "category": "その他のサービス業",
        "color": "#64748b",
        "address": "北海道阿寒郡鶴居村字幌呂原野南５線４３番８５"
      }
    },
    {
      "type": "Feature",
      "id": "道北-197l21l",
      "geometry": {
        "type": "Point",
        "coordinates": [
          142.421753,
          43.802193
        ]
      },
      "properties": {
        "id": "道北-197l21l",
        "name": "イオン旭川永山店",
        "region": "道北",
        "category": "スーパー",
        "color": "#ea580c",
        "address": "北海道旭川市永山３条１２丁目２－１１"
      }
    },
    {
      "type": "Feature",
      "id": "道北-0ntilq3",
      "geometry": {
        "type": "Point",
        "coordinates": [
          142.358063,
          43.76445
        ]
      },
      "properties": {
        "id": "道北-0ntilq3",
        "name": "イオン旭川駅前店",
        "region": "道北",
        "category": "スーパー",
        "color": "#ea580c",
        "address": "北海道旭川市宮下通７丁目２番５号"
      }
    },
    {
      "type": "Feature",
      "id": "道北-0fscndv",
      "geometry": {
        "type": "Point",
        "coordinates": [
          142.356537,
          43.792603
        ]
      },
      "properties": {
        "id": "道北-0fscndv",
        "name": "イオン旭川春光店",
        "region": "道北",
        "category": "スーパー",
        "color": "#ea580c",
        "address": "北海道旭川市春光町１０番地"
      }
    },
    {
      "type": "Feature",
      "id": "道北-0saeoi2",
      "geometry": {
        "type": "Point",
        "coordinates": [
          142.325775,
          43.794594
        ]
      },
      "properties": {
        "id": "道北-0saeoi2",
        "name": "イオン旭川西店",
        "region": "道北",
        "category": "スーパー",
        "color": "#ea580c",
        "address": "北海道旭川市緑町２３丁目２１６１－３"
      }
    },
    {
      "type": "Feature",
      "id": "道北-0upxv7y",
      "geometry": {
        "type": "Point",
        "coordinates": [
          142.412582,
          43.77927
        ]
      },
      "properties": {
        "id": "道北-0upxv7y",
        "name": "ウェスタンパワーズ店",
        "region": "道北",
        "category": "スーパー",
        "color": "#ea580c",
        "address": "北海道旭川市永山１２条３丁目"
      }
    },
    {
      "type": "Feature",
      "id": "道北-19wr049",
      "geometry": {
        "type": "Point",
        "coordinates": [
          142.338348,
          43.78109
        ]
      },
      "properties": {
        "id": "道北-19wr049",
        "name": "ウェスタン川端店",
        "region": "道北",
        "category": "スーパー",
        "color": "#ea580c",
        "address": "北海道旭川市川端町７条１０丁目"
      }
    },
    {
      "type": "Feature",
      "id": "道北-1kfzw8t",
      "geometry": {
        "type": "Point",
        "coordinates": [
          142.42659,
          43.805702
        ]
      },
      "properties": {
        "id": "道北-1kfzw8t",
        "name": "コープさっぽろ シーナ店",
        "region": "道北",
        "category": "スーパー",
        "color": "#ea580c",
        "address": "北海道旭川市永山３－１５－１－７"
      }
    },
    {
      "type": "Feature",
      "id": "道北-0e483gv",
      "geometry": {
        "type": "Point",
        "coordinates": [
          142.389481,
          43.733562
        ]
      },
      "properties": {
        "id": "道北-0e483gv",
        "name": "コープさっぽろ ツインハープ店",
        "region": "道北",
        "category": "スーパー",
        "color": "#ea580c",
        "address": "北海道旭川市旭神３条５丁目"
      }
    },
    {
      "type": "Feature",
      "id": "道北-1llow37",
      "geometry": {
        "type": "Point",
        "coordinates": [
          142.375,
          43.807732
        ]
      },
      "properties": {
        "id": "道北-1llow37",
        "name": "コープさっぽろ 春光店",
        "region": "道北",
        "category": "スーパー",
        "color": "#ea580c",
        "address": "北海道旭川市末広４－１－４５２"
      }
    },
    {
      "type": "Feature",
      "id": "道北-0ohlg8q",
      "geometry": {
        "type": "Point",
        "coordinates": [
          142.347076,
          43.759579
        ]
      },
      "properties": {
        "id": "道北-0ohlg8q",
        "name": "コープさっぽろ 神楽店",
        "region": "道北",
        "category": "スーパー",
        "color": "#ea580c",
        "address": "北海道旭川市神楽４－５－１－２２"
      }
    },
    {
      "type": "Feature",
      "id": "道北-1xagjy3",
      "geometry": {
        "type": "Point",
        "coordinates": [
          142.328049,
          43.770142
        ]
      },
      "properties": {
        "id": "道北-1xagjy3",
        "name": "コープさっぽろ 忠和店",
        "region": "道北",
        "category": "スーパー",
        "color": "#ea580c",
        "address": "北海道旭川市忠和５－８－１－２１"
      }
    },
    {
      "type": "Feature",
      "id": "道北-1983fs9",
      "geometry": {
        "type": "Point",
        "coordinates": [
          142.40358,
          43.755665
        ]
      },
      "properties": {
        "id": "道北-1983fs9",
        "name": "コープさっぽろ 東光店",
        "region": "道北",
        "category": "スーパー",
        "color": "#ea580c",
        "address": "北海道旭川市豊岡１条５丁目１－５"
      }
    },
    {
      "type": "Feature",
      "id": "道北-1kmt9b6",
      "geometry": {
        "type": "Point",
        "coordinates": [
          142.39325,
          43.760452
        ]
      },
      "properties": {
        "id": "道北-1kmt9b6",
        "name": "ザ・ビッグアモール店",
        "region": "道北",
        "category": "スーパー",
        "color": "#ea580c",
        "address": "北海道旭川市豊岡３条２丁目２－１９"
      }
    },
    {
      "type": "Feature",
      "id": "道北-1bqcz8u",
      "geometry": {
        "type": "Point",
        "coordinates": [
          142.437317,
          43.808376
        ]
      },
      "properties": {
        "id": "道北-1bqcz8u",
        "name": "ザ・ビッグ永山店",
        "region": "道北",
        "category": "スーパー",
        "color": "#ea580c",
        "address": "北海道旭川市永山５条１９丁目１－４１"
      }
    },
    {
      "type": "Feature",
      "id": "道北-0crodri",
      "geometry": {
        "type": "Point",
        "coordinates": [
          142.374008,
          43.759315
        ]
      },
      "properties": {
        "id": "道北-0crodri",
        "name": "ザ・ビッグ宮前通店",
        "region": "道北",
        "category": "スーパー",
        "color": "#ea580c",
        "address": "北海道旭川市宮前１条３丁目２－５"
      }
    },
    {
      "type": "Feature",
      "id": "道北-10nm94d",
      "geometry": {
        "type": "Point",
        "coordinates": [
          142.380325,
          43.728348
        ]
      },
      "properties": {
        "id": "道北-10nm94d",
        "name": "ザ・ビッグ緑が丘店",
        "region": "道北",
        "category": "スーパー",
        "color": "#ea580c",
        "address": "北海道旭川市緑が丘東３条１丁目３番３９号"
      }
    },
    {
      "type": "Feature",
      "id": "道北-1e403a5",
      "geometry": {
        "type": "Point",
        "coordinates": [
          142.370911,
          43.75317
        ]
      },
      "properties": {
        "id": "道北-1e403a5",
        "name": "スーパーアークスウェスタン北彩都店",
        "region": "道北",
        "category": "スーパー",
        "color": "#ea580c",
        "address": "北海道旭川市南６条通１８丁目２１８２２"
      }
    },
    {
      "type": "Feature",
      "id": "道北-1ysy9a0",
      "geometry": {
        "type": "Point",
        "coordinates": [
          142.38559,
          43.774803
        ]
      },
      "properties": {
        "id": "道北-1ysy9a0",
        "name": "スーパーアークスパルプタウン店",
        "region": "道北",
        "category": "スーパー",
        "color": "#ea580c",
        "address": "北海道旭川市パルプ町１条２丁目５０５番２"
      }
    },
    {
      "type": "Feature",
      "id": "道北-1g72hdp",
      "geometry": {
        "type": "Point",
        "coordinates": [
          142.443573,
          43.815277
        ]
      },
      "properties": {
        "id": "道北-1g72hdp",
        "name": "スーパーアークス永山中央店",
        "region": "道北",
        "category": "スーパー",
        "color": "#ea580c",
        "address": "北海道旭川市永山３条２２丁目"
      }
    },
    {
      "type": "Feature",
      "id": "道北-0s4mk3o",
      "geometry": {
        "type": "Point",
        "coordinates": [
          142.337402,
          43.756332
        ]
      },
      "properties": {
        "id": "道北-0s4mk3o",
        "name": "スーパーアークス神居東店",
        "region": "道北",
        "category": "スーパー",
        "color": "#ea580c",
        "address": "北海道旭川市神居２条１３丁目２番１８号"
      }
    },
    {
      "type": "Feature",
      "id": "道北-1neijs1",
      "geometry": {
        "type": "Point",
        "coordinates": [
          142.366028,
          43.729424
        ]
      },
      "properties": {
        "id": "道北-1neijs1",
        "name": "スーパーアークス西神楽店",
        "region": "道北",
        "category": "スーパー",
        "color": "#ea580c",
        "address": "北海道旭川市緑ヶ丘南５条１丁目１番８号"
      }
    },
    {
      "type": "Feature",
      "id": "道北-1pmggy7",
      "geometry": {
        "type": "Point",
        "coordinates": [
          142.410645,
          43.745571
        ]
      },
      "properties": {
        "id": "道北-1pmggy7",
        "name": "スーパーアークス東光店",
        "region": "道北",
        "category": "スーパー",
        "color": "#ea580c",
        "address": "北海道旭川市東光１０条７丁目１番３３号"
      }
    },
    {
      "type": "Feature",
      "id": "道北-0weppeu",
      "geometry": {
        "type": "Point",
        "coordinates": [
          142.401657,
          43.758915
        ]
      },
      "properties": {
        "id": "道北-0weppeu",
        "name": "スーパーアークス豊岡３条店",
        "region": "道北",
        "category": "スーパー",
        "color": "#ea580c",
        "address": "北海道旭川市豊岡３条４丁目４番５号"
      }
    },
    {
      "type": "Feature",
      "id": "道北-19yukbm",
      "geometry": {
        "type": "Point",
        "coordinates": [
          142.394592,
          43.809177
        ]
      },
      "properties": {
        "id": "道北-19yukbm",
        "name": "スーパーアークス末広東店",
        "region": "道北",
        "category": "スーパー",
        "color": "#ea580c",
        "address": "北海道旭川市末広東１条８丁目１番２号"
      }
    },
    {
      "type": "Feature",
      "id": "道北-0m3qraq",
      "geometry": {
        "type": "Point",
        "coordinates": [
          142.377457,
          43.805927
        ]
      },
      "properties": {
        "id": "道北-0m3qraq",
        "name": "スーパーアークス六合店",
        "region": "道北",
        "category": "スーパー",
        "color": "#ea580c",
        "address": "北海道旭川市末広３条１丁目"
      }
    },
    {
      "type": "Feature",
      "id": "道北-0nmcotn",
      "geometry": {
        "type": "Point",
        "coordinates": [
          142.356918,
          43.749874
        ]
      },
      "properties": {
        "id": "道北-0nmcotn",
        "name": "スーパーセンタートライアル神楽店",
        "region": "道北",
        "category": "スーパー",
        "color": "#ea580c",
        "address": "北海道旭川市神楽４条１２丁目１２－１５"
      }
    },
    {
      "type": "Feature",
      "id": "道北-0r5xfc6",
      "geometry": {
        "type": "Point",
        "coordinates": [
          142.421295,
          43.794422
        ]
      },
      "properties": {
        "id": "道北-0r5xfc6",
        "name": "スーパーチェーンふじ永山西店",
        "region": "道北",
        "category": "スーパー",
        "color": "#ea580c",
        "address": "北海道旭川市永山７条１０丁目"
      }
    },
    {
      "type": "Feature",
      "id": "道北-197zxyk",
      "geometry": {
        "type": "Point",
        "coordinates": [
          142.352905,
          43.819775
        ]
      },
      "properties": {
        "id": "道北-197zxyk",
        "name": "スーパーチェーンふじ春光台店",
        "region": "道北",
        "category": "スーパー",
        "color": "#ea580c",
        "address": "北海道旭川市春光台４条３丁目"
      }
    },
    {
      "type": "Feature",
      "id": "道北-03o6abx",
      "geometry": {
        "type": "Point",
        "coordinates": [
          142.382401,
          43.785976
        ]
      },
      "properties": {
        "id": "道北-03o6abx",
        "name": "スーパーチェーンふじ新富店",
        "region": "道北",
        "category": "スーパー",
        "color": "#ea580c",
        "address": "北海道旭川市東６条１０丁目"
      }
    },
    {
      "type": "Feature",
      "id": "道北-0mppksm",
      "geometry": {
        "type": "Point",
        "coordinates": [
          142.382431,
          43.814934
        ]
      },
      "properties": {
        "id": "道北-0mppksm",
        "name": "スーパーチェーンふじ末広５条店",
        "region": "道北",
        "category": "スーパー",
        "color": "#ea580c",
        "address": "北海道旭川市末広５条６丁目１０番１３号"
      }
    },
    {
      "type": "Feature",
      "id": "道北-0ja0r94",
      "geometry": {
        "type": "Point",
        "coordinates": [
          142.3517,
          43.786034
        ]
      },
      "properties": {
        "id": "道北-0ja0r94",
        "name": "ダイイチ 旭町店",
        "region": "道北",
        "category": "スーパー",
        "color": "#ea580c",
        "address": "北海道旭川市旭町１条７丁目２６３１番地"
      }
    },
    {
      "type": "Feature",
      "id": "道北-0ym672z",
      "geometry": {
        "type": "Point",
        "coordinates": [
          142.377762,
          43.798016
        ]
      },
      "properties": {
        "id": "道北-0ym672z",
        "name": "ダイイチ 花咲店",
        "region": "道北",
        "category": "スーパー",
        "color": "#ea580c",
        "address": "北海道旭川市春光１条８丁目１番地７７"
      }
    },
    {
      "type": "Feature",
      "id": "道北-0l7e7gt",
      "geometry": {
        "type": "Point",
        "coordinates": [
          142.354645,
          43.768501
        ]
      },
      "properties": {
        "id": "道北-0l7e7gt",
        "name": "ダイイチ 西店",
        "region": "道北",
        "category": "スーパー",
        "color": "#ea580c",
        "address": "北海道旭川市２条通４丁目１３４番地"
      }
    },
    {
      "type": "Feature",
      "id": "道北-1yyvfvx",
      "geometry": {
        "type": "Point",
        "coordinates": [
          142.424377,
          43.772129
        ]
      },
      "properties": {
        "id": "道北-1yyvfvx",
        "name": "ダイイチ 東旭川店",
        "region": "道北",
        "category": "スーパー",
        "color": "#ea580c",
        "address": "北海道旭川市東旭川北１条１丁目３番地３７号"
      }
    },
    {
      "type": "Feature",
      "id": "道北-0i5ggv6",
      "geometry": {
        "type": "Point",
        "coordinates": [
          142.408234,
          43.743427
        ]
      },
      "properties": {
        "id": "道北-0i5ggv6",
        "name": "ダイイチ 東光店",
        "region": "道北",
        "category": "スーパー",
        "color": "#ea580c",
        "address": "北海道旭川市東光１２条６丁目２０３番地"
      }
    },
    {
      "type": "Feature",
      "id": "道北-0y5stt7",
      "geometry": {
        "type": "Point",
        "coordinates": [
          142.383286,
          43.75988
        ]
      },
      "properties": {
        "id": "道北-0y5stt7",
        "name": "ダイイチ 二条通店",
        "region": "道北",
        "category": "スーパー",
        "color": "#ea580c",
        "address": "北海道旭川市２条通２３丁目１１０番地１"
      }
    },
    {
      "type": "Feature",
      "id": "道北-1b193wj",
      "geometry": {
        "type": "Point",
        "coordinates": [
          142.39209,
          43.809364
        ]
      },
      "properties": {
        "id": "道北-1b193wj",
        "name": "ダイイチ 末広店",
        "region": "道北",
        "category": "スーパー",
        "color": "#ea580c",
        "address": "北海道旭川市末広１条７丁目２６５番地"
      }
    },
    {
      "type": "Feature",
      "id": "道北-0j78l1l",
      "geometry": {
        "type": "Point",
        "coordinates": [
          142.388474,
          43.770065
        ]
      },
      "properties": {
        "id": "道北-0j78l1l",
        "name": "ベストプライス１０条通店",
        "region": "道北",
        "category": "スーパー",
        "color": "#ea580c",
        "address": "北海道旭川市１０条通２３丁目２番地５"
      }
    },
    {
      "type": "Feature",
      "id": "道北-02cewb5",
      "geometry": {
        "type": "Point",
        "coordinates": [
          142.332977,
          43.765156
        ]
      },
      "properties": {
        "id": "道北-02cewb5",
        "name": "ベストプライス神居店",
        "region": "道北",
        "category": "スーパー",
        "color": "#ea580c",
        "address": "北海道旭川市神居２条５丁目"
      }
    },
    {
      "type": "Feature",
      "id": "道北-1tepkgz",
      "geometry": {
        "type": "Point",
        "coordinates": [
          142.439606,
          43.772217
        ]
      },
      "properties": {
        "id": "道北-1tepkgz",
        "name": "ベストプライス東旭川店",
        "region": "道北",
        "category": "スーパー",
        "color": "#ea580c",
        "address": "北海道旭川市東旭川北１条５丁目"
      }
    },
    {
      "type": "Feature",
      "id": "道北-0jcdb5k",
      "geometry": {
        "type": "Point",
        "coordinates": [
          142.380966,
          43.751453
        ]
      },
      "properties": {
        "id": "道北-0jcdb5k",
        "name": "ベストプライス南６条通店",
        "region": "道北",
        "category": "スーパー",
        "color": "#ea580c",
        "address": "北海道旭川市南５条通２４丁目１２１"
      }
    },
    {
      "type": "Feature",
      "id": "道北-0ydu5n8",
      "geometry": {
        "type": "Point",
        "coordinates": [
          142.4077,
          43.767963
        ]
      },
      "properties": {
        "id": "道北-0ydu5n8",
        "name": "ベストプライス豊岡中央店",
        "region": "道北",
        "category": "スーパー",
        "color": "#ea580c",
        "address": "北海道旭川市豊岡１０条５丁目５番３号"
      }
    },
    {
      "type": "Feature",
      "id": "道北-195y0uf",
      "geometry": {
        "type": "Point",
        "coordinates": [
          142.358337,
          43.817879
        ]
      },
      "properties": {
        "id": "道北-195y0uf",
        "name": "ホクレンショップ春光台店",
        "region": "道北",
        "category": "スーパー",
        "color": "#ea580c",
        "address": "北海道旭川市春光台３条３丁目８－２２"
      }
    },
    {
      "type": "Feature",
      "id": "道北-1le81lc",
      "geometry": {
        "type": "Point",
        "coordinates": [
          142.319748,
          43.775021
        ]
      },
      "properties": {
        "id": "道北-1le81lc",
        "name": "ホクレンショップ忠和店",
        "region": "道北",
        "category": "スーパー",
        "color": "#ea580c",
        "address": "北海道旭川市忠和５条５丁目１－２６"
      }
    },
    {
      "type": "Feature",
      "id": "道北-1kn03ro",
      "geometry": {
        "type": "Point",
        "coordinates": [
          142.400208,
          43.744865
        ]
      },
      "properties": {
        "id": "道北-1kn03ro",
        "name": "ホクレンショップ東光店",
        "region": "道北",
        "category": "スーパー",
        "color": "#ea580c",
        "address": "北海道旭川市東光１１条４丁目"
      }
    },
    {
      "type": "Feature",
      "id": "道北-15hjxik",
      "geometry": {
        "type": "Point",
        "coordinates": [
          142.372208,
          43.768482
        ]
      },
      "properties": {
        "id": "道北-15hjxik",
        "name": "メガセンタートライアル旭川店",
        "region": "道北",
        "category": "スーパー",
        "color": "#ea580c",
        "address": "北海道旭川市６条通１４丁目６４"
      }
    },
    {
      "type": "Feature",
      "id": "道北-0mz2apb",
      "geometry": {
        "type": "Point",
        "coordinates": [
          142.358673,
          43.781937
        ]
      },
      "properties": {
        "id": "道北-0mz2apb",
        "name": "セイコーマートよねき",
        "region": "道北",
        "category": "コンビニ",
        "color": "#2563eb",
        "address": "北海道旭川市旭町１条２丁目４３９－２４"
      }
    },
    {
      "type": "Feature",
      "id": "道北-1tzr45e",
      "geometry": {
        "type": "Point",
        "coordinates": [
          142.359802,
          43.76442
        ]
      },
      "properties": {
        "id": "道北-1tzr45e",
        "name": "セイコーマートルートイングランド旭川",
        "region": "道北",
        "category": "コンビニ",
        "color": "#2563eb",
        "address": "北海道旭川市宮下通８丁目１９６２番地１"
      }
    },
    {
      "type": "Feature",
      "id": "道北-0yqr0jt",
      "geometry": {
        "type": "Point",
        "coordinates": [
          142.359741,
          43.765087
        ]
      },
      "properties": {
        "id": "道北-0yqr0jt",
        "name": "セイコーマート旭川１条通",
        "region": "道北",
        "category": "コンビニ",
        "color": "#2563eb",
        "address": "北海道旭川市１条通８丁目３４８番地２ 旭川１条ビル１階"
      }
    },
    {
      "type": "Feature",
      "id": "道北-0ket6qb",
      "geometry": {
        "type": "Point",
        "coordinates": [
          142.375656,
          43.762066
        ]
      },
      "properties": {
        "id": "道北-0ket6qb",
        "name": "セイコーマート旭川２条通",
        "region": "道北",
        "category": "コンビニ",
        "color": "#2563eb",
        "address": "北海道旭川市２条通１８丁目４７０番地"
      }
    },
    {
      "type": "Feature",
      "id": "道北-0cujy9o",
      "geometry": {
        "type": "Point",
        "coordinates": [
          142.36496,
          43.768063
        ]
      },
      "properties": {
        "id": "道北-0cujy9o",
        "name": "セイコーマート旭川４条通１０丁目",
        "region": "道北",
        "category": "コンビニ",
        "color": "#2563eb",
        "address": "北海道旭川市４条通１０丁目２２３４番地９"
      }
    },
    {
      "type": "Feature",
      "id": "道北-05kljf9",
      "geometry": {
        "type": "Point",
        "coordinates": [
          142.379456,
          43.765774
        ]
      },
      "properties": {
        "id": "道北-05kljf9",
        "name": "セイコーマート旭川６条大雪通",
        "region": "道北",
        "category": "コンビニ",
        "color": "#2563eb",
        "address": "北海道旭川市６条通１９丁目１７１７番２１６"
      }
    },
    {
      "type": "Feature",
      "id": "道北-04ld8ax",
      "geometry": {
        "type": "Point",
        "coordinates": [
          142.351578,
          43.774315
        ]
      },
      "properties": {
        "id": "道北-04ld8ax",
        "name": "セイコーマート旭川７条",
        "region": "道北",
        "category": "コンビニ",
        "color": "#2563eb",
        "address": "北海道旭川市７条西１丁目１番１７号"
      }
    },
    {
      "type": "Feature",
      "id": "道北-1ifqmh0",
      "geometry": {
        "type": "Point",
        "coordinates": [
          142.365814,
          43.7729
        ]
      },
      "properties": {
        "id": "道北-1ifqmh0",
        "name": "セイコーマート旭川８条通",
        "region": "道北",
        "category": "コンビニ",
        "color": "#2563eb",
        "address": "北海道旭川市８条通９丁目５２番地１０"
      }
    },
    {
      "type": "Feature",
      "id": "道北-1y8kkvu",
      "geometry": {
        "type": "Point",
        "coordinates": [
          142.376785,
          43.770351
        ]
      },
      "properties": {
        "id": "道北-1y8kkvu",
        "name": "セイコーマート旭川９条通",
        "region": "道北",
        "category": "コンビニ",
        "color": "#2563eb",
        "address": "北海道旭川市９条通１６丁目２４番地１２１"
      }
    },
    {
      "type": "Feature",
      "id": "道北-0ng41x1",
      "geometry": {
        "type": "Point",
        "coordinates": [
          142.408127,
          43.768284
        ]
      },
      "properties": {
        "id": "道北-0ng41x1",
        "name": "セイコーマート旭川あたご",
        "region": "道北",
        "category": "コンビニ",
        "color": "#2563eb",
        "address": "北海道旭川市豊岡１１条５丁目５番２号"
      }
    },
    {
      "type": "Feature",
      "id": "道北-16pe7mc",
      "geometry": {
        "type": "Point",
        "coordinates": [
          142.361588,
          43.772202
        ]
      },
      "properties": {
        "id": "道北-16pe7mc",
        "name": "セイコーマート旭川トーヨーホテル",
        "region": "道北",
        "category": "コンビニ",
        "color": "#2563eb",
        "address": "北海道旭川市７条通７丁目３２番地１２－１"
      }
    },
    {
      "type": "Feature",
      "id": "道北-01qha05",
      "geometry": {
        "type": "Point",
        "coordinates": [
          142.405777,
          43.777859
        ]
      },
      "properties": {
        "id": "道北-01qha05",
        "name": "セイコーマート旭川永山１１条",
        "region": "道北",
        "category": "コンビニ",
        "color": "#2563eb",
        "address": "北海道旭川市永山１１条１丁目１番１２号"
      }
    },
    {
      "type": "Feature",
      "id": "道北-1m82e68",
      "geometry": {
        "type": "Point",
        "coordinates": [
          142.323593,
          43.767086
        ]
      },
      "properties": {
        "id": "道北-1m82e68",
        "name": "セイコーマート旭川神居７条",
        "region": "道北",
        "category": "コンビニ",
        "color": "#2563eb",
        "address": "北海道旭川市神居７条１丁目２番７号"
      }
    },
    {
      "type": "Feature",
      "id": "道北-0ebylt4",
      "geometry": {
        "type": "Point",
        "coordinates": [
          142.289703,
          43.769192
        ]
      },
      "properties": {
        "id": "道北-0ebylt4",
        "name": "セイコーマート旭川台場",
        "region": "道北",
        "category": "コンビニ",
        "color": "#2563eb",
        "address": "北海道旭川市台場２条３丁目１番３号"
      }
    },
    {
      "type": "Feature",
      "id": "道北-0e7ikwv",
      "geometry": {
        "type": "Point",
        "coordinates": [
          142.318542,
          43.775654
        ]
      },
      "properties": {
        "id": "道北-0e7ikwv",
        "name": "セイコーマート旭川忠和５条",
        "region": "道北",
        "category": "コンビニ",
        "color": "#2563eb",
        "address": "北海道旭川市忠和５条５丁目１番１８号"
      }
    },
    {
      "type": "Feature",
      "id": "道北-0xe2sqx",
      "geometry": {
        "type": "Point",
        "coordinates": [
          142.339859,
          43.78994
        ]
      },
      "properties": {
        "id": "道北-0xe2sqx",
        "name": "セイコーマート旭川北門町",
        "region": "道北",
        "category": "コンビニ",
        "color": "#2563eb",
        "address": "北海道旭川市北門町１４丁目２１４４番地１２５"
      }
    },
    {
      "type": "Feature",
      "id": "道北-0lodrvc",
      "geometry": {
        "type": "Point",
        "coordinates": [
          142.35643,
          43.78223
        ]
      },
      "properties": {
        "id": "道北-0lodrvc",
        "name": "セイコーマート旭川本町",
        "region": "道北",
        "category": "コンビニ",
        "color": "#2563eb",
        "address": "北海道旭川市旭町１条３丁目２５８２番地の１３"
      }
    },
    {
      "type": "Feature",
      "id": "道北-1vs9xi0",
      "geometry": {
        "type": "Point",
        "coordinates": [
          142.385254,
          43.805859
        ]
      },
      "properties": {
        "id": "道北-1vs9xi0",
        "name": "セイコーマート旭川末広１条",
        "region": "道北",
        "category": "コンビニ",
        "color": "#2563eb",
        "address": "北海道旭川市末広１条３丁目３番１７号"
      }
    },
    {
      "type": "Feature",
      "id": "道北-00j27ox",
      "geometry": {
        "type": "Point",
        "coordinates": [
          142.387421,
          43.811554
        ]
      },
      "properties": {
        "id": "道北-00j27ox",
        "name": "セイコーマート旭川末広３条",
        "region": "道北",
        "category": "コンビニ",
        "color": "#2563eb",
        "address": "北海道旭川市末広３条７丁目１番１号"
      }
    },
    {
      "type": "Feature",
      "id": "道北-0mdmogh",
      "geometry": {
        "type": "Point",
        "coordinates": [
          142.389389,
          43.819695
        ]
      },
      "properties": {
        "id": "道北-0mdmogh",
        "name": "セイコーマート旭川末広４条",
        "region": "道北",
        "category": "コンビニ",
        "color": "#2563eb",
        "address": "北海道旭川市末広４条１０丁目４番１５号"
      }
    },
    {
      "type": "Feature",
      "id": "道北-088e4o0",
      "geometry": {
        "type": "Point",
        "coordinates": [
          142.398834,
          43.812244
        ]
      },
      "properties": {
        "id": "道北-088e4o0",
        "name": "セイコーマート旭川末広東１条１０丁目",
        "region": "道北",
        "category": "コンビニ",
        "color": "#2563eb",
        "address": "北海道旭川市末広東１条１０丁目２番１号"
      }
    },
    {
      "type": "Feature",
      "id": "道北-1hc4phz",
      "geometry": {
        "type": "Point",
        "coordinates": [
          142.393982,
          43.799816
        ]
      },
      "properties": {
        "id": "道北-1hc4phz",
        "name": "セイコーマート旭川末広東３条",
        "region": "道北",
        "category": "コンビニ",
        "color": "#2563eb",
        "address": "北海道旭川市末広東３条４丁目９番２０号"
      }
    },
    {
      "type": "Feature",
      "id": "道北-04ms3gl",
      "geometry": {
        "type": "Point",
        "coordinates": [
          142.394257,
          43.793327
        ]
      },
      "properties": {
        "id": "道北-04ms3gl",
        "name": "セイコーマート旭川流通団地",
        "region": "道北",
        "category": "コンビニ",
        "color": "#2563eb",
        "address": "北海道旭川市流通団地２条１丁目８番地８"
      }
    },
    {
      "type": "Feature",
      "id": "道北-0qqmrs3",
      "geometry": {
        "type": "Point",
        "coordinates": [
          142.404877,
          43.799946
        ]
      },
      "properties": {
        "id": "道北-0qqmrs3",
        "name": "セイコーマート旭川流通団地２条",
        "region": "道北",
        "category": "コンビニ",
        "color": "#2563eb",
        "address": "北海道旭川市流通団地２条４丁目１７番地"
      }
    },
    {
      "type": "Feature",
      "id": "道北-0lvwmps",
      "geometry": {
        "type": "Point",
        "coordinates": [
          142.374451,
          43.728256
        ]
      },
      "properties": {
        "id": "道北-0lvwmps",
        "name": "セイコーマート旭川緑が丘",
        "region": "道北",
        "category": "コンビニ",
        "color": "#2563eb",
        "address": "北海道旭川市西御料２条１丁目１番１号"
      }
    },
    {
      "type": "Feature",
      "id": "道北-0e30nyl",
      "geometry": {
        "type": "Point",
        "coordinates": [
          142.339737,
          43.795193
        ]
      },
      "properties": {
        "id": "道北-0e30nyl",
        "name": "セイコーマート旭町",
        "region": "道北",
        "category": "コンビニ",
        "color": "#2563eb",
        "address": "北海道旭川市旭町１条１７丁目２９８５番地の２６"
      }
    },
    {
      "type": "Feature",
      "id": "道北-1cagvyd",
      "geometry": {
        "type": "Point",
        "coordinates": [
          142.401199,
          43.786816
        ]
      },
      "properties": {
        "id": "道北-1cagvyd",
        "name": "セイコーマート永山４条",
        "region": "道北",
        "category": "コンビニ",
        "color": "#2563eb",
        "address": "北海道旭川市永山４条３丁目１番２３号"
      }
    },
    {
      "type": "Feature",
      "id": "道北-0km1g3d",
      "geometry": {
        "type": "Point",
        "coordinates": [
          142.417374,
          43.792789
        ]
      },
      "properties": {
        "id": "道北-0km1g3d",
        "name": "セイコーマート永山７条",
        "region": "道北",
        "category": "コンビニ",
        "color": "#2563eb",
        "address": "北海道旭川市永山７条８丁目６番３号"
      }
    },
    {
      "type": "Feature",
      "id": "道北-0yfp9kx",
      "geometry": {
        "type": "Point",
        "coordinates": [
          142.406982,
          43.786232
        ]
      },
      "properties": {
        "id": "道北-0yfp9kx",
        "name": "セイコーマート永山７条４丁目",
        "region": "道北",
        "category": "コンビニ",
        "color": "#2563eb",
        "address": "北海道旭川市永山７条４丁目２番６号"
      }
    },
    {
      "type": "Feature",
      "id": "道北-040pvha",
      "geometry": {
        "type": "Point",
        "coordinates": [
          142.43483,
          43.803745
        ]
      },
      "properties": {
        "id": "道北-040pvha",
        "name": "セイコーマート永山７条北",
        "region": "道北",
        "category": "コンビニ",
        "color": "#2563eb",
        "address": "北海道旭川市永山７条１６丁目３番２１号"
      }
    },
    {
      "type": "Feature",
      "id": "道北-0yfsld1",
      "geometry": {
        "type": "Point",
        "coordinates": [
          142.368332,
          43.804771
        ]
      },
      "properties": {
        "id": "道北-0yfsld1",
        "name": "セイコーマート春光５条",
        "region": "道北",
        "category": "コンビニ",
        "color": "#2563eb",
        "address": "北海道旭川市春光５条７丁目１１番３１号"
      }
    },
    {
      "type": "Feature",
      "id": "道北-1o45rhw",
      "geometry": {
        "type": "Point",
        "coordinates": [
          142.362549,
          43.823158
        ]
      },
      "properties": {
        "id": "道北-1o45rhw",
        "name": "セイコーマート春光台",
        "region": "道北",
        "category": "コンビニ",
        "color": "#2563eb",
        "address": "北海道旭川市春光台３条６丁目３番２"
      }
    },
    {
      "type": "Feature",
      "id": "道北-1b84utq",
      "geometry": {
        "type": "Point",
        "coordinates": [
          142.354446,
          43.815666
        ]
      },
      "properties": {
        "id": "道北-1b84utq",
        "name": "セイコーマート春光台３条",
        "region": "道北",
        "category": "コンビニ",
        "color": "#2563eb",
        "address": "北海道旭川市春光台３条３丁目１番１９号"
      }
    },
    {
      "type": "Feature",
      "id": "道北-1130ret",
      "geometry": {
        "type": "Point",
        "coordinates": [
          142.354568,
          43.75766
        ]
      },
      "properties": {
        "id": "道北-1130ret",
        "name": "セイコーマート神楽３条",
        "region": "道北",
        "category": "コンビニ",
        "color": "#2563eb",
        "address": "北海道旭川市神楽３条９丁目１番２７号"
      }
    },
    {
      "type": "Feature",
      "id": "道北-1vkak1a",
      "geometry": {
        "type": "Point",
        "coordinates": [
          142.366135,
          43.747128
        ]
      },
      "properties": {
        "id": "道北-1vkak1a",
        "name": "セイコーマート神楽岡通",
        "region": "道北",
        "category": "コンビニ",
        "color": "#2563eb",
        "address": "北海道旭川市神楽岡８条２丁目１番２０号"
      }
    },
    {
      "type": "Feature",
      "id": "道北-07d52er",
      "geometry": {
        "type": "Point",
        "coordinates": [
          142.330658,
          43.757576
        ]
      },
      "properties": {
        "id": "道北-07d52er",
        "name": "セイコーマート神居６条",
        "region": "道北",
        "category": "コンビニ",
        "color": "#2563eb",
        "address": "北海道旭川市神居６条１０丁目３番３号"
      }
    },
    {
      "type": "Feature",
      "id": "道北-1khvvg4",
      "geometry": {
        "type": "Point",
        "coordinates": [
          142.375275,
          43.719517
        ]
      },
      "properties": {
        "id": "道北-1khvvg4",
        "name": "セイコーマート千代ヶ岡",
        "region": "道北",
        "category": "コンビニ",
        "color": "#2563eb",
        "address": "北海道旭川市西神楽２線２４号"
      }
    },
    {
      "type": "Feature",
      "id": "道北-0nd3r4q",
      "geometry": {
        "type": "Point",
        "coordinates": [
          142.445999,
          43.77037
        ]
      },
      "properties": {
        "id": "道北-0nd3r4q",
        "name": "セイコーマート東旭川",
        "region": "道北",
        "category": "コンビニ",
        "color": "#2563eb",
        "address": "北海道旭川市東旭川南１条７丁目１番２３号"
      }
    },
    {
      "type": "Feature",
      "id": "道北-0csevxt",
      "geometry": {
        "type": "Point",
        "coordinates": [
          142.452835,
          43.782398
        ]
      },
      "properties": {
        "id": "道北-0csevxt",
        "name": "セイコーマート東旭川上兵村",
        "region": "道北",
        "category": "コンビニ",
        "color": "#2563eb",
        "address": "北海道旭川市東旭川町上兵村２８１番地の２"
      }
    },
    {
      "type": "Feature",
      "id": "道北-0lq4083",
      "geometry": {
        "type": "Point",
        "coordinates": [
          142.389618,
          43.743504
        ]
      },
      "properties": {
        "id": "道北-0lq4083",
        "name": "セイコーマート東光１３条",
        "region": "道北",
        "category": "コンビニ",
        "color": "#2563eb",
        "address": "北海道旭川市東光１３条１丁目３番１８号"
      }
    },
    {
      "type": "Feature",
      "id": "道北-0macwgy",
      "geometry": {
        "type": "Point",
        "coordinates": [
          142.406082,
          43.741226
        ]
      },
      "properties": {
        "id": "道北-0macwgy",
        "name": "セイコーマート東光１４条",
        "region": "道北",
        "category": "コンビニ",
        "color": "#2563eb",
        "address": "北海道旭川市東光１４条６丁目５番２１号"
      }
    },
    {
      "type": "Feature",
      "id": "道北-13t6avy",
      "geometry": {
        "type": "Point",
        "coordinates": [
          142.391266,
          43.753891
        ]
      },
      "properties": {
        "id": "道北-13t6avy",
        "name": "セイコーマート東光２条",
        "region": "道北",
        "category": "コンビニ",
        "color": "#2563eb",
        "address": "北海道旭川市東光２条２丁目５番２３号"
      }
    },
    {
      "type": "Feature",
      "id": "道北-179j5sk",
      "geometry": {
        "type": "Point",
        "coordinates": [
          142.399033,
          43.750416
        ]
      },
      "properties": {
        "id": "道北-179j5sk",
        "name": "セイコーマート東光６条",
        "region": "道北",
        "category": "コンビニ",
        "color": "#2563eb",
        "address": "北海道旭川市東光６条４丁目１番１号"
      }
    },
    {
      "type": "Feature",
      "id": "道北-18hgpv0",
      "geometry": {
        "type": "Point",
        "coordinates": [
          142.41275,
          43.825722
        ]
      },
      "properties": {
        "id": "道北-18hgpv0",
        "name": "セイコーマート東鷹栖１条",
        "region": "道北",
        "category": "コンビニ",
        "color": "#2563eb",
        "address": "北海道旭川市東鷹栖１条３丁目６３５番地の１５"
      }
    },
    {
      "type": "Feature",
      "id": "道北-1xo9v34",
      "geometry": {
        "type": "Point",
        "coordinates": [
          142.412888,
          43.76796
        ]
      },
      "properties": {
        "id": "道北-1xo9v34",
        "name": "セイコーマート豊岡１１条",
        "region": "道北",
        "category": "コンビニ",
        "color": "#2563eb",
        "address": "北海道旭川市豊岡１１条７丁目１番２号"
      }
    },
    {
      "type": "Feature",
      "id": "道北-0tl5c29",
      "geometry": {
        "type": "Point",
        "coordinates": [
          142.417007,
          43.772072
        ]
      },
      "properties": {
        "id": "道北-0tl5c29",
        "name": "セイコーマート豊岡１５条",
        "region": "道北",
        "category": "コンビニ",
        "color": "#2563eb",
        "address": "北海道旭川市豊岡１５条７丁目３番１８号"
      }
    },
    {
      "type": "Feature",
      "id": "道北-11kyvgh",
      "geometry": {
        "type": "Point",
        "coordinates": [
          142.42099,
          43.759109
        ]
      },
      "properties": {
        "id": "道北-11kyvgh",
        "name": "セイコーマート豊岡４条",
        "region": "道北",
        "category": "コンビニ",
        "color": "#2563eb",
        "address": "北海道旭川市豊岡４条９丁目１番１０号"
      }
    },
    {
      "type": "Feature",
      "id": "道北-0hz5lca",
      "geometry": {
        "type": "Point",
        "coordinates": [
          142.408005,
          43.76009
        ]
      },
      "properties": {
        "id": "道北-0hz5lca",
        "name": "セイコーマート豊岡４条６丁目",
        "region": "道北",
        "category": "コンビニ",
        "color": "#2563eb",
        "address": "北海道旭川市豊岡４条６丁目２番１号"
      }
    },
    {
      "type": "Feature",
      "id": "道北-12mocf5",
      "geometry": {
        "type": "Point",
        "coordinates": [
          142.40033,
          43.763687
        ]
      },
      "properties": {
        "id": "道北-12mocf5",
        "name": "セイコーマート豊岡６条",
        "region": "道北",
        "category": "コンビニ",
        "color": "#2563eb",
        "address": "北海道旭川市豊岡６条４丁目２番１号"
      }
    },
    {
      "type": "Feature",
      "id": "道北-1itwo2e",
      "geometry": {
        "type": "Point",
        "coordinates": [
          142.389526,
          43.766048
        ]
      },
      "properties": {
        "id": "道北-1itwo2e",
        "name": "セイコーマート豊岡８条",
        "region": "道北",
        "category": "コンビニ",
        "color": "#2563eb",
        "address": "北海道旭川市豊岡８条１丁目１番２２号"
      }
    },
    {
      "type": "Feature",
      "id": "道北-1ihyw3b",
      "geometry": {
        "type": "Point",
        "coordinates": [
          142.354752,
          43.771019
        ]
      },
      "properties": {
        "id": "道北-1ihyw3b",
        "name": "セブン‐イレブン旭川４条通３丁目店",
        "region": "道北",
        "category": "コンビニ",
        "color": "#2563eb",
        "address": "北海道旭川市４条通３丁目１６１６ー１"
      }
    },
    {
      "type": "Feature",
      "id": "道北-0fhzefk",
      "geometry": {
        "type": "Point",
        "coordinates": [
          142.358643,
          43.78381
        ]
      },
      "properties": {
        "id": "道北-0fhzefk",
        "name": "セブン－イレブン旭川旭町２条店",
        "region": "道北",
        "category": "コンビニ",
        "color": "#2563eb",
        "address": "北海道旭川市旭町２条３丁目１１－４"
      }
    },
    {
      "type": "Feature",
      "id": "道北-1qjottj",
      "geometry": {
        "type": "Point",
        "coordinates": [
          142.348618,
          43.782825
        ]
      },
      "properties": {
        "id": "道北-1qjottj",
        "name": "セブンイレブン旭川川端",
        "region": "道北",
        "category": "コンビニ",
        "color": "#2563eb",
        "address": "北海道旭川市川端町３条７丁目３−１"
      }
    },
    {
      "type": "Feature",
      "id": "道北-0owfbs0",
      "geometry": {
        "type": "Point",
        "coordinates": [
          142.35881,
          43.763382
        ]
      },
      "properties": {
        "id": "道北-0owfbs0",
        "name": "セブン－イレブン北海道ＳＴ旭川店",
        "region": "道北",
        "category": "コンビニ",
        "color": "#2563eb",
        "address": "北海道旭川市宮下通８丁目 ＪＲ旭川駅構内"
      }
    },
    {
      "type": "Feature",
      "id": "道北-0jopfec",
      "geometry": {
        "type": "Point",
        "coordinates": [
          142.362549,
          43.76083
        ]
      },
      "properties": {
        "id": "道北-0jopfec",
        "name": "ハマナスクラブ森山病院",
        "region": "道北",
        "category": "コンビニ",
        "color": "#2563eb",
        "address": "北海道旭川市宮前２条１丁目１番６号"
      }
    },
    {
      "type": "Feature",
      "id": "道北-1gecu4i",
      "geometry": {
        "type": "Point",
        "coordinates": [
          142.358063,
          43.76445
        ]
      },
      "properties": {
        "id": "道北-1gecu4i",
        "name": "杉養蜂園 イオンモール旭川駅前店",
        "region": "道北",
        "category": "その他の飲食料品小売店",
        "color": "#ca8a04",
        "address": "北海道旭川市宮下通７丁目２番５号 １Ｆ"
      }
    },
    {
      "type": "Feature",
      "id": "道北-0bih2bb",
      "geometry": {
        "type": "Point",
        "coordinates": [
          142.35881,
          43.763382
        ]
      },
      "properties": {
        "id": "道北-0bih2bb",
        "name": "北海道四季彩館旭川西店",
        "region": "道北",
        "category": "その他の飲食料品小売店",
        "color": "#ca8a04",
        "address": "北海道旭川市宮下通８丁目 ＪＲ旭川駅構内"
      }
    },
    {
      "type": "Feature",
      "id": "道北-1kavnuq",
      "geometry": {
        "type": "Point",
        "coordinates": [
          142.358063,
          43.76445
        ]
      },
      "properties": {
        "id": "道北-1kavnuq",
        "name": "柳月イオンモール旭川駅前店",
        "region": "道北",
        "category": "その他の飲食料品小売店",
        "color": "#ca8a04",
        "address": "北海道旭川市宮下通７丁目２番５号 イオンモール旭川駅前１階"
      }
    },
    {
      "type": "Feature",
      "id": "道北-1suyosg",
      "geometry": {
        "type": "Point",
        "coordinates": [
          142.412582,
          43.77927
        ]
      },
      "properties": {
        "id": "道北-1suyosg",
        "name": "柳月ウエスタンパワーズ店",
        "region": "道北",
        "category": "その他の飲食料品小売店",
        "color": "#ca8a04",
        "address": "北海道旭川市永山１２条３丁目"
      }
    },
    {
      "type": "Feature",
      "id": "道北-1q26u7c",
      "geometry": {
        "type": "Point",
        "coordinates": [
          142.410645,
          43.745571
        ]
      },
      "properties": {
        "id": "道北-1q26u7c",
        "name": "柳月スーパーアークス東光店",
        "region": "道北",
        "category": "その他の飲食料品小売店",
        "color": "#ca8a04",
        "address": "北海道旭川市東光１０条７丁目１－３３"
      }
    },
    {
      "type": "Feature",
      "id": "道北-1irtyy5",
      "geometry": {
        "type": "Point",
        "coordinates": [
          142.378662,
          43.798004
        ]
      },
      "properties": {
        "id": "道北-1irtyy5",
        "name": "ＭＥＧＡドン・キホーテ旭川店",
        "region": "道北",
        "category": "百貨店・ショッピングセンター",
        "color": "#9333ea",
        "address": "北海道旭川市春光１条８丁目１番６５号"
      }
    },
    {
      "type": "Feature",
      "id": "道北-0z626l8",
      "geometry": {
        "type": "Point",
        "coordinates": [
          142.334442,
          43.760719
        ]
      },
      "properties": {
        "id": "道北-0z626l8",
        "name": "エースリー調剤薬局神居店",
        "region": "道北",
        "category": "ドラッグストア・薬局",
        "color": "#059669",
        "address": "北海道旭川市神居３条９丁目１ー３"
      }
    },
    {
      "type": "Feature",
      "id": "道北-0hgkvci",
      "geometry": {
        "type": "Point",
        "coordinates": [
          142.364838,
          43.767757
        ]
      },
      "properties": {
        "id": "道北-0hgkvci",
        "name": "サツドラ旭川４条通店",
        "region": "道北",
        "category": "ドラッグストア・薬局",
        "color": "#059669",
        "address": "北海道旭川市４条通１０丁目２１８９番１"
      }
    },
    {
      "type": "Feature",
      "id": "道北-0d9rx51",
      "geometry": {
        "type": "Point",
        "coordinates": [
          142.372543,
          43.740623
        ]
      },
      "properties": {
        "id": "道北-0d9rx51",
        "name": "サツドラ旭川プラタナス通店",
        "region": "道北",
        "category": "ドラッグストア・薬局",
        "color": "#059669",
        "address": "北海道旭川市神楽岡６条６丁目１番８号"
      }
    },
    {
      "type": "Feature",
      "id": "道北-1wmlifr",
      "geometry": {
        "type": "Point",
        "coordinates": [
          142.356934,
          43.78994
        ]
      },
      "properties": {
        "id": "道北-1wmlifr",
        "name": "サツドラ旭川大町２条店",
        "region": "道北",
        "category": "ドラッグストア・薬局",
        "color": "#059669",
        "address": "北海道旭川市大町２条７丁目７７番１２号"
      }
    },
    {
      "type": "Feature",
      "id": "道北-1tneywo",
      "geometry": {
        "type": "Point",
        "coordinates": [
          142.399643,
          43.759892
        ]
      },
      "properties": {
        "id": "道北-1tneywo",
        "name": "サツドラ旭川豊岡４条店",
        "region": "道北",
        "category": "ドラッグストア・薬局",
        "color": "#059669",
        "address": "北海道旭川市豊岡４条３丁目６番１３号"
      }
    },
    {
      "type": "Feature",
      "id": "道北-0w3l6nc",
      "geometry": {
        "type": "Point",
        "coordinates": [
          142.382812,
          43.759056
        ]
      },
      "properties": {
        "id": "道北-0w3l6nc",
        "name": "ツルハドラッグキャンドゥ１条店",
        "region": "道北",
        "category": "ドラッグストア・薬局",
        "color": "#059669",
        "address": "北海道旭川市１条通２３丁目１１１－２４"
      }
    },
    {
      "type": "Feature",
      "id": "道北-1b08jz7",
      "geometry": {
        "type": "Point",
        "coordinates": [
          142.383286,
          43.75988
        ]
      },
      "properties": {
        "id": "道北-1b08jz7",
        "name": "ツルハドラッグ旭川２条店",
        "region": "道北",
        "category": "ドラッグストア・薬局",
        "color": "#059669",
        "address": "北海道旭川市２条通２３丁目１１０－１"
      }
    },
    {
      "type": "Feature",
      "id": "道北-074rvfo",
      "geometry": {
        "type": "Point",
        "coordinates": [
          142.350967,
          43.771461
        ]
      },
      "properties": {
        "id": "道北-074rvfo",
        "name": "ツルハドラッグ旭川４条西店",
        "region": "道北",
        "category": "ドラッグストア・薬局",
        "color": "#059669",
        "address": "北海道旭川市４条通１丁目２２４１－６"
      }
    },
    {
      "type": "Feature",
      "id": "道北-0t14g3g",
      "geometry": {
        "type": "Point",
        "coordinates": [
          142.37233,
          43.765575
        ]
      },
      "properties": {
        "id": "道北-0t14g3g",
        "name": "ツルハドラッグ旭川４条店",
        "region": "道北",
        "category": "ドラッグストア・薬局",
        "color": "#059669",
        "address": "北海道旭川市４条通１５丁目７５０"
      }
    },
    {
      "type": "Feature",
      "id": "道北-1r6z3ai",
      "geometry": {
        "type": "Point",
        "coordinates": [
          142.378922,
          43.767834
        ]
      },
      "properties": {
        "id": "道北-1r6z3ai",
        "name": "ツルハドラッグ旭川７条店",
        "region": "道北",
        "category": "ドラッグストア・薬局",
        "color": "#059669",
        "address": "北海道旭川市７条通１８丁目９２－９"
      }
    },
    {
      "type": "Feature",
      "id": "道北-1y4dsj2",
      "geometry": {
        "type": "Point",
        "coordinates": [
          142.43718,
          43.808483
        ]
      },
      "properties": {
        "id": "道北-1y4dsj2",
        "name": "ツルハドラッグ旭川永山５条店",
        "region": "道北",
        "category": "ドラッグストア・薬局",
        "color": "#059669",
        "address": "北海道旭川市永山５条１９丁目１番４２号"
      }
    },
    {
      "type": "Feature",
      "id": "道北-1y927pa",
      "geometry": {
        "type": "Point",
        "coordinates": [
          142.425018,
          43.799648
        ]
      },
      "properties": {
        "id": "道北-1y927pa",
        "name": "ツルハドラッグ旭川永山６条店",
        "region": "道北",
        "category": "ドラッグストア・薬局",
        "color": "#059669",
        "address": "北海道旭川市永山６条１３丁目１－２８"
      }
    },
    {
      "type": "Feature",
      "id": "道北-0c70vej",
      "geometry": {
        "type": "Point",
        "coordinates": [
          142.359726,
          43.762955
        ]
      },
      "properties": {
        "id": "道北-0c70vej",
        "name": "ツルハドラッグ旭川駅前店",
        "region": "道北",
        "category": "ドラッグストア・薬局",
        "color": "#059669",
        "address": "北海道旭川市宮下通９丁目２番１７号"
      }
    },
    {
      "type": "Feature",
      "id": "道北-15t94u8",
      "geometry": {
        "type": "Point",
        "coordinates": [
          142.339859,
          43.78994
        ]
      },
      "properties": {
        "id": "道北-15t94u8",
        "name": "ツルハドラッグ旭川近文店",
        "region": "道北",
        "category": "ドラッグストア・薬局",
        "color": "#059669",
        "address": "北海道旭川市北門町１４丁目２１４４－１２９"
      }
    },
    {
      "type": "Feature",
      "id": "道北-1xbqzc4",
      "geometry": {
        "type": "Point",
        "coordinates": [
          142.357147,
          43.819275
        ]
      },
      "properties": {
        "id": "道北-1xbqzc4",
        "name": "ツルハドラッグ旭川春光台店",
        "region": "道北",
        "category": "ドラッグストア・薬局",
        "color": "#059669",
        "address": "北海道旭川市春光台３条４丁目６番３号"
      }
    },
    {
      "type": "Feature",
      "id": "道北-0dvs8ux",
      "geometry": {
        "type": "Point",
        "coordinates": [
          142.357056,
          43.749146
        ]
      },
      "properties": {
        "id": "道北-0dvs8ux",
        "name": "ツルハドラッグ旭川神楽５条店",
        "region": "道北",
        "category": "ドラッグストア・薬局",
        "color": "#059669",
        "address": "北海道旭川市神楽５条１２丁目１番２０号"
      }
    },
    {
      "type": "Feature",
      "id": "道北-0ccgv33",
      "geometry": {
        "type": "Point",
        "coordinates": [
          142.373749,
          43.739864
        ]
      },
      "properties": {
        "id": "道北-0ccgv33",
        "name": "ツルハドラッグ旭川神楽岡店",
        "region": "道北",
        "category": "ドラッグストア・薬局",
        "color": "#059669",
        "address": "北海道旭川市神楽岡５条６丁目４番２０号"
      }
    },
    {
      "type": "Feature",
      "id": "道北-1ios2dr",
      "geometry": {
        "type": "Point",
        "coordinates": [
          142.352417,
          43.75489
        ]
      },
      "properties": {
        "id": "道北-1ios2dr",
        "name": "ツルハドラッグ旭川神楽店",
        "region": "道北",
        "category": "ドラッグストア・薬局",
        "color": "#059669",
        "address": "北海道旭川市神楽５条９丁目２番２７号"
      }
    },
    {
      "type": "Feature",
      "id": "道北-1jt8k9q",
      "geometry": {
        "type": "Point",
        "coordinates": [
          142.340866,
          43.749763
        ]
      },
      "properties": {
        "id": "道北-1jt8k9q",
        "name": "ツルハドラッグ旭川神居東店",
        "region": "道北",
        "category": "ドラッグストア・薬局",
        "color": "#059669",
        "address": "北海道旭川市神居３条１８丁目２番５号"
      }
    },
    {
      "type": "Feature",
      "id": "道北-1t7zida",
      "geometry": {
        "type": "Point",
        "coordinates": [
          142.360519,
          43.788765
        ]
      },
      "properties": {
        "id": "道北-1t7zida",
        "name": "ツルハドラッグ旭川大町３条店",
        "region": "道北",
        "category": "ドラッグストア・薬局",
        "color": "#059669",
        "address": "北海道旭川市大町３条５丁目２３９７－１８"
      }
    },
    {
      "type": "Feature",
      "id": "道北-1rti7ag",
      "geometry": {
        "type": "Point",
        "coordinates": [
          142.348633,
          43.796127
        ]
      },
      "properties": {
        "id": "道北-1rti7ag",
        "name": "ツルハドラッグ旭川大町店",
        "region": "道北",
        "category": "ドラッグストア・薬局",
        "color": "#059669",
        "address": "北海道旭川市大町２条１４丁目９２－２６"
      }
    },
    {
      "type": "Feature",
      "id": "道北-1hek9yu",
      "geometry": {
        "type": "Point",
        "coordinates": [
          142.359741,
          43.765087
        ]
      },
      "properties": {
        "id": "道北-1hek9yu",
        "name": "ツルハドラッグ旭川中央店",
        "region": "道北",
        "category": "ドラッグストア・薬局",
        "color": "#059669",
        "address": "北海道旭川市１条通８丁目１８７番地１"
      }
    },
    {
      "type": "Feature",
      "id": "道北-09hz8y8",
      "geometry": {
        "type": "Point",
        "coordinates": [
          142.382645,
          43.787033
        ]
      },
      "properties": {
        "id": "道北-09hz8y8",
        "name": "ツルハドラッグ旭川東５条店",
        "region": "道北",
        "category": "ドラッグストア・薬局",
        "color": "#059669",
        "address": "北海道旭川市東５条１１丁目３番８号"
      }
    },
    {
      "type": "Feature",
      "id": "道北-0m7x5z0",
      "geometry": {
        "type": "Point",
        "coordinates": [
          142.371185,
          43.752998
        ]
      },
      "properties": {
        "id": "道北-0m7x5z0",
        "name": "ツルハドラッグ旭川南６条店",
        "region": "道北",
        "category": "ドラッグストア・薬局",
        "color": "#059669",
        "address": "北海道旭川市南６条通１８丁目２１８２－９０"
      }
    },
    {
      "type": "Feature",
      "id": "道北-0w2v7y8",
      "geometry": {
        "type": "Point",
        "coordinates": [
          142.402191,
          43.760777
        ]
      },
      "properties": {
        "id": "道北-0w2v7y8",
        "name": "ツルハドラッグ旭川豊岡５条店",
        "region": "道北",
        "category": "ドラッグストア・薬局",
        "color": "#059669",
        "address": "北海道旭川市豊岡５条４丁目４番４３号"
      }
    },
    {
      "type": "Feature",
      "id": "道北-06ilvcg",
      "geometry": {
        "type": "Point",
        "coordinates": [
          142.393005,
          43.765598
        ]
      },
      "properties": {
        "id": "道北-06ilvcg",
        "name": "ツルハドラッグ旭川豊岡７条店",
        "region": "道北",
        "category": "ドラッグストア・薬局",
        "color": "#059669",
        "address": "北海道旭川市豊岡７条２丁目２番３号"
      }
    },
    {
      "type": "Feature",
      "id": "道北-1pfqwhr",
      "geometry": {
        "type": "Point",
        "coordinates": [
          142.371964,
          43.809933
        ]
      },
      "properties": {
        "id": "道北-1pfqwhr",
        "name": "ツルハドラッグ旭川末広５条店",
        "region": "道北",
        "category": "ドラッグストア・薬局",
        "color": "#059669",
        "address": "北海道旭川市末広５条１丁目４番２３号"
      }
    },
    {
      "type": "Feature",
      "id": "道北-04e5syq",
      "geometry": {
        "type": "Point",
        "coordinates": [
          142.398529,
          43.812344
        ]
      },
      "properties": {
        "id": "道北-04e5syq",
        "name": "ツルハドラッグ旭川末広北店",
        "region": "道北",
        "category": "ドラッグストア・薬局",
        "color": "#059669",
        "address": "北海道旭川市末広１条１０丁目１番２０号"
      }
    },
    {
      "type": "Feature",
      "id": "道北-00roqob",
      "geometry": {
        "type": "Point",
        "coordinates": [
          142.38031,
          43.729069
        ]
      },
      "properties": {
        "id": "道北-00roqob",
        "name": "ツルハドラッグ旭川緑が丘店",
        "region": "道北",
        "category": "ドラッグストア・薬局",
        "color": "#059669",
        "address": "北海道旭川市緑が丘東３条１丁目３番３号"
      }
    },
    {
      "type": "Feature",
      "id": "道北-0etandc",
      "geometry": {
        "type": "Point",
        "coordinates": [
          142.325958,
          43.790379
        ]
      },
      "properties": {
        "id": "道北-0etandc",
        "name": "ツルハドラッグ旭川緑町店",
        "region": "道北",
        "category": "ドラッグストア・薬局",
        "color": "#059669",
        "address": "北海道旭川市緑町２０丁目２７５２－７"
      }
    },
    {
      "type": "Feature",
      "id": "道北-0f262cl",
      "geometry": {
        "type": "Point",
        "coordinates": [
          142.352203,
          43.785908
        ]
      },
      "properties": {
        "id": "道北-0f262cl",
        "name": "ツルハドラッグ旭町店",
        "region": "道北",
        "category": "ドラッグストア・薬局",
        "color": "#059669",
        "address": "北海道旭川市旭町１条７丁目"
      }
    },
    {
      "type": "Feature",
      "id": "道北-1dh1wv0",
      "geometry": {
        "type": "Point",
        "coordinates": [
          142.412384,
          43.796909
        ]
      },
      "properties": {
        "id": "道北-1dh1wv0",
        "name": "ツルハドラッグ永山３条西店",
        "region": "道北",
        "category": "ドラッグストア・薬局",
        "color": "#059669",
        "address": "北海道旭川市永山３条８丁目２番６号"
      }
    },
    {
      "type": "Feature",
      "id": "道北-1g2m3b3",
      "geometry": {
        "type": "Point",
        "coordinates": [
          142.409515,
          43.787148
        ]
      },
      "properties": {
        "id": "道北-1g2m3b3",
        "name": "ツルハドラッグ永山環状通店",
        "region": "道北",
        "category": "ドラッグストア・薬局",
        "color": "#059669",
        "address": "北海道旭川市永山７条５丁目１番１５号"
      }
    },
    {
      "type": "Feature",
      "id": "道北-1c2ge5b",
      "geometry": {
        "type": "Point",
        "coordinates": [
          142.409149,
          43.785015
        ]
      },
      "properties": {
        "id": "道北-1c2ge5b",
        "name": "ツルハドラッグ永山南店",
        "region": "道北",
        "category": "ドラッグストア・薬局",
        "color": "#059669",
        "address": "北海道旭川市永山８条４丁目９８番２"
      }
    },
    {
      "type": "Feature",
      "id": "道北-1ct0lkf",
      "geometry": {
        "type": "Point",
        "coordinates": [
          142.37439,
          43.758457
        ]
      },
      "properties": {
        "id": "道北-1ct0lkf",
        "name": "ツルハドラッグ宮前店",
        "region": "道北",
        "category": "ドラッグストア・薬局",
        "color": "#059669",
        "address": "北海道旭川市宮前１条３丁目２番１２号"
      }
    },
    {
      "type": "Feature",
      "id": "道北-0m72esp",
      "geometry": {
        "type": "Point",
        "coordinates": [
          142.338165,
          43.789433
        ]
      },
      "properties": {
        "id": "道北-0m72esp",
        "name": "ツルハドラッグ錦町店",
        "region": "道北",
        "category": "ドラッグストア・薬局",
        "color": "#059669",
        "address": "北海道旭川市錦町１５丁目２９０３－２"
      }
    },
    {
      "type": "Feature",
      "id": "道北-0wqqm6k",
      "geometry": {
        "type": "Point",
        "coordinates": [
          142.379913,
          43.802708
        ]
      },
      "properties": {
        "id": "道北-0wqqm6k",
        "name": "ツルハドラッグ春光１条店",
        "region": "道北",
        "category": "ドラッグストア・薬局",
        "color": "#059669",
        "address": "北海道旭川市春光１条９丁目１９番６号"
      }
    },
    {
      "type": "Feature",
      "id": "道北-1jco3wg",
      "geometry": {
        "type": "Point",
        "coordinates": [
          142.359848,
          43.801811
        ]
      },
      "properties": {
        "id": "道北-1jco3wg",
        "name": "ツルハドラッグ春光５条店",
        "region": "道北",
        "category": "ドラッグストア・薬局",
        "color": "#059669",
        "address": "北海道旭川市春光５条４丁目８番１２号"
      }
    },
    {
      "type": "Feature",
      "id": "道北-0px7eiv",
      "geometry": {
        "type": "Point",
        "coordinates": [
          142.331818,
          43.765175
        ]
      },
      "properties": {
        "id": "道北-0px7eiv",
        "name": "ツルハドラッグ神居３条店",
        "region": "道北",
        "category": "ドラッグストア・薬局",
        "color": "#059669",
        "address": "北海道旭川市神居３条５丁目１－２"
      }
    },
    {
      "type": "Feature",
      "id": "道北-1f1cw7d",
      "geometry": {
        "type": "Point",
        "coordinates": [
          142.334335,
          43.758366
        ]
      },
      "properties": {
        "id": "道北-1f1cw7d",
        "name": "ツルハドラッグ神居十字街店",
        "region": "道北",
        "category": "ドラッグストア・薬局",
        "color": "#059669",
        "address": "北海道旭川市神居３条１１丁目２番２１号"
      }
    },
    {
      "type": "Feature",
      "id": "道北-06d6max",
      "geometry": {
        "type": "Point",
        "coordinates": [
          142.320938,
          43.774593
        ]
      },
      "properties": {
        "id": "道北-06d6max",
        "name": "ツルハドラッグ忠和店",
        "region": "道北",
        "category": "ドラッグストア・薬局",
        "color": "#059669",
        "address": "北海道旭川市忠和４条６丁目４番１２号"
      }
    },
    {
      "type": "Feature",
      "id": "道北-11dj7nm",
      "geometry": {
        "type": "Point",
        "coordinates": [
          142.37796,
          43.778252
        ]
      },
      "properties": {
        "id": "道北-11dj7nm",
        "name": "ツルハドラッグ東６条店",
        "region": "道北",
        "category": "ドラッグストア・薬局",
        "color": "#059669",
        "address": "北海道旭川市東６条３丁目１番１２号"
      }
    },
    {
      "type": "Feature",
      "id": "道北-0nkoj43",
      "geometry": {
        "type": "Point",
        "coordinates": [
          142.425262,
          43.771679
        ]
      },
      "properties": {
        "id": "道北-0nkoj43",
        "name": "ツルハドラッグ東旭川店",
        "region": "道北",
        "category": "ドラッグストア・薬局",
        "color": "#059669",
        "address": "北海道旭川市東旭川北１条１丁目３－３２"
      }
    },
    {
      "type": "Feature",
      "id": "道北-0f66gnj",
      "geometry": {
        "type": "Point",
        "coordinates": [
          142.398499,
          43.746098
        ]
      },
      "properties": {
        "id": "道北-0f66gnj",
        "name": "ツルハドラッグ東光１０条店",
        "region": "道北",
        "category": "ドラッグストア・薬局",
        "color": "#059669",
        "address": "北海道旭川市東光１０条４丁目１番１８号"
      }
    },
    {
      "type": "Feature",
      "id": "道北-0ckq42k",
      "geometry": {
        "type": "Point",
        "coordinates": [
          142.409042,
          43.743584
        ]
      },
      "properties": {
        "id": "道北-0ckq42k",
        "name": "ツルハドラッグ東光１２条店",
        "region": "道北",
        "category": "ドラッグストア・薬局",
        "color": "#059669",
        "address": "北海道旭川市東光１２条６丁目５番２８号"
      }
    },
    {
      "type": "Feature",
      "id": "道北-08l521i",
      "geometry": {
        "type": "Point",
        "coordinates": [
          142.411438,
          43.754005
        ]
      },
      "properties": {
        "id": "道北-08l521i",
        "name": "ツルハドラッグ東光１条店",
        "region": "道北",
        "category": "ドラッグストア・薬局",
        "color": "#059669",
        "address": "北海道旭川市東光１条７丁目１番１４号"
      }
    },
    {
      "type": "Feature",
      "id": "道北-04d2rpb",
      "geometry": {
        "type": "Point",
        "coordinates": [
          142.390198,
          43.747047
        ]
      },
      "properties": {
        "id": "道北-04d2rpb",
        "name": "ツルハドラッグ東光９条店",
        "region": "道北",
        "category": "ドラッグストア・薬局",
        "color": "#059669",
        "address": "北海道旭川市東光９条１丁目３番１５号"
      }
    },
    {
      "type": "Feature",
      "id": "道北-08xnqa8",
      "geometry": {
        "type": "Point",
        "coordinates": [
          142.404083,
          43.754539
        ]
      },
      "properties": {
        "id": "道北-08xnqa8",
        "name": "ツルハドラッグ東光店",
        "region": "道北",
        "category": "ドラッグストア・薬局",
        "color": "#059669",
        "address": "北海道旭川市東光１条５丁目１番５号"
      }
    },
    {
      "type": "Feature",
      "id": "道北-0wt08k6",
      "geometry": {
        "type": "Point",
        "coordinates": [
          142.404236,
          43.770672
        ]
      },
      "properties": {
        "id": "道北-0wt08k6",
        "name": "ツルハドラッグ豊岡１２条店",
        "region": "道北",
        "category": "ドラッグストア・薬局",
        "color": "#059669",
        "address": "北海道旭川市豊岡１２条４丁目５－６"
      }
    },
    {
      "type": "Feature",
      "id": "道北-0x4oozp",
      "geometry": {
        "type": "Point",
        "coordinates": [
          142.386963,
          43.804878
        ]
      },
      "properties": {
        "id": "道北-0x4oozp",
        "name": "ツルハドラッグ末広１条店",
        "region": "道北",
        "category": "ドラッグストア・薬局",
        "color": "#059669",
        "address": "北海道旭川市末広１条４丁目１番５号"
      }
    },
    {
      "type": "Feature",
      "id": "道北-19figsb",
      "geometry": {
        "type": "Point",
        "coordinates": [
          142.361267,
          43.771648
        ]
      },
      "properties": {
        "id": "道北-19figsb",
        "name": "調剤薬局クスリのツルハ旭川６条店",
        "region": "道北",
        "category": "ドラッグストア・薬局",
        "color": "#059669",
        "address": "北海道旭川市６条通７丁目３１－１"
      }
    },
    {
      "type": "Feature",
      "id": "道北-1x8cpjl",
      "geometry": {
        "type": "Point",
        "coordinates": [
          142.349152,
          43.768414
        ]
      },
      "properties": {
        "id": "道北-1x8cpjl",
        "name": "調剤薬局クスリのツルハ旭川日赤前店",
        "region": "道北",
        "category": "ドラッグストア・薬局",
        "color": "#059669",
        "address": "北海道旭川市１条通１丁目３‐２３２"
      }
    },
    {
      "type": "Feature",
      "id": "道北-1c750o1",
      "geometry": {
        "type": "Point",
        "coordinates": [
          142.402817,
          43.790928
        ]
      },
      "properties": {
        "id": "道北-1c750o1",
        "name": "調剤薬局クスリのツルハ永山３条店",
        "region": "道北",
        "category": "ドラッグストア・薬局",
        "color": "#059669",
        "address": "北海道旭川市永山３条４丁目３－１"
      }
    },
    {
      "type": "Feature",
      "id": "道北-1jlrgq9",
      "geometry": {
        "type": "Point",
        "coordinates": [
          142.406616,
          43.750984
        ]
      },
      "properties": {
        "id": "道北-1jlrgq9",
        "name": "調剤薬局クスリのツルハ東光５条店",
        "region": "道北",
        "category": "ドラッグストア・薬局",
        "color": "#059669",
        "address": "北海道旭川市東光５条５丁目３－２"
      }
    },
    {
      "type": "Feature",
      "id": "道北-1kiy0t2",
      "geometry": {
        "type": "Point",
        "coordinates": [
          142.382812,
          43.759056
        ]
      },
      "properties": {
        "id": "道北-1kiy0t2",
        "name": "調剤薬局ツルハドラッグ１条店",
        "region": "道北",
        "category": "ドラッグストア・薬局",
        "color": "#059669",
        "address": "北海道旭川市１条通２３丁目１１１－２４"
      }
    },
    {
      "type": "Feature",
      "id": "道北-0byxosc",
      "geometry": {
        "type": "Point",
        "coordinates": [
          142.406693,
          43.786057
        ]
      },
      "properties": {
        "id": "道北-0byxosc",
        "name": "調剤薬局ツルハドラッグ永山７条店",
        "region": "道北",
        "category": "ドラッグストア・薬局",
        "color": "#059669",
        "address": "北海道旭川市永山７条４丁目２番４号"
      }
    },
    {
      "type": "Feature",
      "id": "道北-07k1gxb",
      "geometry": {
        "type": "Point",
        "coordinates": [
          142.402252,
          43.760101
        ]
      },
      "properties": {
        "id": "道北-07k1gxb",
        "name": "ＤＣＭ（株）豊岡店",
        "region": "道北",
        "category": "ホームセンター・家具・家電",
        "color": "#7c3aed",
        "address": "北海道旭川市豊岡４条４丁目５番１０号"
      }
    },
    {
      "type": "Feature",
      "id": "道北-07ca0sb",
      "geometry": {
        "type": "Point",
        "coordinates": [
          142.406433,
          43.793522
        ]
      },
      "properties": {
        "id": "道北-07ca0sb",
        "name": "ＤＣＭ永山店",
        "region": "道北",
        "category": "ホームセンター・家具・家電",
        "color": "#7c3aed",
        "address": "北海道旭川市永山２条６丁目１番３３号"
      }
    },
    {
      "type": "Feature",
      "id": "道北-1sn1ldh",
      "geometry": {
        "type": "Point",
        "coordinates": [
          142.372406,
          43.751526
        ]
      },
      "properties": {
        "id": "道北-1sn1ldh",
        "name": "ＤＣＭ宮前店",
        "region": "道北",
        "category": "ホームセンター・家具・家電",
        "color": "#7c3aed",
        "address": "北海道旭川市南７条通１９丁目２１８２－８３"
      }
    },
    {
      "type": "Feature",
      "id": "道北-16gw6n1",
      "geometry": {
        "type": "Point",
        "coordinates": [
          142.37381,
          43.797306
        ]
      },
      "properties": {
        "id": "道北-16gw6n1",
        "name": "ケーズデンキ旭川春光店",
        "region": "道北",
        "category": "ホームセンター・家具・家電",
        "color": "#7c3aed",
        "address": "北海道旭川市春光１条７丁目２番１０号"
      }
    },
    {
      "type": "Feature",
      "id": "道北-09h8vf3",
      "geometry": {
        "type": "Point",
        "coordinates": [
          142.383331,
          43.773438
        ]
      },
      "properties": {
        "id": "道北-09h8vf3",
        "name": "ケーズデンキ旭川大雪通店",
        "region": "道北",
        "category": "ホームセンター・家具・家電",
        "color": "#7c3aed",
        "address": "北海道旭川市大雪通１丁目４８２－２７"
      }
    },
    {
      "type": "Feature",
      "id": "道北-1m0n2is",
      "geometry": {
        "type": "Point",
        "coordinates": [
          142.325775,
          43.794594
        ]
      },
      "properties": {
        "id": "道北-1m0n2is",
        "name": "ＫＥＹＵＣＡイオンモール旭川西店",
        "region": "道北",
        "category": "衣料・身の回り品",
        "color": "#c026d3",
        "address": "北海道旭川市緑町２３－２１６１－３ イオンモール旭川西１Ｆ"
      }
    },
    {
      "type": "Feature",
      "id": "道北-0viepkj",
      "geometry": {
        "type": "Point",
        "coordinates": [
          142.356766,
          43.763683
        ]
      },
      "properties": {
        "id": "道北-0viepkj",
        "name": "ＭＡＲＡＩ",
        "region": "道北",
        "category": "衣料・身の回り品",
        "color": "#c026d3",
        "address": "北海道旭川市宮下通７丁目イオンモール旭川駅前３階"
      }
    },
    {
      "type": "Feature",
      "id": "道北-1jbfyz6",
      "geometry": {
        "type": "Point",
        "coordinates": [
          142.40741,
          43.793045
        ]
      },
      "properties": {
        "id": "道北-1jbfyz6",
        "name": "ナチュラルハイ旭川永山店",
        "region": "道北",
        "category": "衣料・身の回り品",
        "color": "#c026d3",
        "address": "北海道旭川市永山３条６丁目６３－２"
      }
    },
    {
      "type": "Feature",
      "id": "道北-10fikjp",
      "geometry": {
        "type": "Point",
        "coordinates": [
          142.404266,
          43.790939
        ]
      },
      "properties": {
        "id": "道北-10fikjp",
        "name": "はるやまチェーン旭川永山店",
        "region": "道北",
        "category": "衣料・身の回り品",
        "color": "#c026d3",
        "address": "北海道旭川市永山３条４丁目３ー１１"
      }
    },
    {
      "type": "Feature",
      "id": "道北-1adm616",
      "geometry": {
        "type": "Point",
        "coordinates": [
          142.34874,
          43.75729
        ]
      },
      "properties": {
        "id": "道北-1adm616",
        "name": "はるやまチェーン旭川神楽店",
        "region": "道北",
        "category": "衣料・身の回り品",
        "color": "#c026d3",
        "address": "北海道旭川市神楽５条７丁目１－１２"
      }
    },
    {
      "type": "Feature",
      "id": "道北-1owv9vs",
      "geometry": {
        "type": "Point",
        "coordinates": [
          142.412704,
          43.781467
        ]
      },
      "properties": {
        "id": "道北-1owv9vs",
        "name": "プチパル旭川",
        "region": "道北",
        "category": "衣料・身の回り品",
        "color": "#c026d3",
        "address": "北海道旭川市永山１１条４丁目１２１－１６"
      }
    },
    {
      "type": "Feature",
      "id": "道北-1vcr89s",
      "geometry": {
        "type": "Point",
        "coordinates": [
          142.358063,
          43.76445
        ]
      },
      "properties": {
        "id": "道北-1vcr89s",
        "name": "富士メガネ イオンモール旭川駅前店",
        "region": "道北",
        "category": "衣料・身の回り品",
        "color": "#c026d3",
        "address": "北海道旭川市宮下通７丁目２－５イオンモール旭川駅前２階"
      }
    },
    {
      "type": "Feature",
      "id": "道北-0557kgi",
      "geometry": {
        "type": "Point",
        "coordinates": [
          142.325775,
          43.794594
        ]
      },
      "properties": {
        "id": "道北-0557kgi",
        "name": "富士メガネ イオンモール旭川西店",
        "region": "道北",
        "category": "衣料・身の回り品",
        "color": "#c026d3",
        "address": "北海道旭川市緑町２３丁目２１６１－３イオンモール旭川西２Ｆ"
      }
    },
    {
      "type": "Feature",
      "id": "道北-030zzpa",
      "geometry": {
        "type": "Point",
        "coordinates": [
          142.387085,
          43.749104
        ]
      },
      "properties": {
        "id": "道北-030zzpa",
        "name": "富士メガネ 旭川東光店",
        "region": "道北",
        "category": "衣料・身の回り品",
        "color": "#c026d3",
        "address": "北海道旭川市東光８条１丁目１－６"
      }
    },
    {
      "type": "Feature",
      "id": "道北-1yml5si",
      "geometry": {
        "type": "Point",
        "coordinates": [
          142.38707,
          43.804062
        ]
      },
      "properties": {
        "id": "道北-1yml5si",
        "name": "お仏壇のよねはら 旭川店",
        "region": "道北",
        "category": "その他の小売店",
        "color": "#475569",
        "address": "北海道旭川市末広１条３丁目１－２１"
      }
    },
    {
      "type": "Feature",
      "id": "道北-0hb9xes",
      "geometry": {
        "type": "Point",
        "coordinates": [
          142.367432,
          43.759541
        ]
      },
      "properties": {
        "id": "道北-0hb9xes",
        "name": "コーチャンフォー旭川店",
        "region": "道北",
        "category": "その他の小売店",
        "color": "#475569",
        "address": "北海道旭川市宮前１条２丁目４番１号"
      }
    },
    {
      "type": "Feature",
      "id": "道北-1omdbfl",
      "geometry": {
        "type": "Point",
        "coordinates": [
          142.325775,
          43.794594
        ]
      },
      "properties": {
        "id": "道北-1omdbfl",
        "name": "コンタクトのアイシティ イオンモール旭川西店",
        "region": "道北",
        "category": "その他の小売店",
        "color": "#475569",
        "address": "北海道旭川市緑町２３丁目２１６１ー３"
      }
    },
    {
      "type": "Feature",
      "id": "道北-0jrv9ql",
      "geometry": {
        "type": "Point",
        "coordinates": [
          142.359879,
          43.765331
        ]
      },
      "properties": {
        "id": "道北-0jrv9ql",
        "name": "コンタクトのアイシティ旭川駅前店",
        "region": "道北",
        "category": "その他の小売店",
        "color": "#475569",
        "address": "北海道旭川市１条通８丁目右７号ＳＰビル２Ｆ"
      }
    },
    {
      "type": "Feature",
      "id": "道北-06tdv94",
      "geometry": {
        "type": "Point",
        "coordinates": [
          142.325775,
          43.794594
        ]
      },
      "properties": {
        "id": "道北-06tdv94",
        "name": "宮文 旭川店",
        "region": "道北",
        "category": "その他の小売店",
        "color": "#475569",
        "address": "北海道旭川市緑町２３丁目２１６１－３ イオン旭川西店１階"
      }
    },
    {
      "type": "Feature",
      "id": "道北-0lyff3w",
      "geometry": {
        "type": "Point",
        "coordinates": [
          142.358063,
          43.76445
        ]
      },
      "properties": {
        "id": "道北-0lyff3w",
        "name": "グランファームビュッフェ イオンモール旭川駅前店",
        "region": "道北",
        "category": "カフェ・レストラン",
        "color": "#db2777",
        "address": "北海道旭川市宮下通７丁目２番５号 イオンモール旭川駅前４Ｆ"
      }
    },
    {
      "type": "Feature",
      "id": "道北-0i7os3b",
      "geometry": {
        "type": "Point",
        "coordinates": [
          142.367432,
          43.759541
        ]
      },
      "properties": {
        "id": "道北-0i7os3b",
        "name": "ドトールコーヒーショップ コーチャンフォー旭川店",
        "region": "道北",
        "category": "カフェ・レストラン",
        "color": "#db2777",
        "address": "北海道旭川市宮前１条２丁目４番１号"
      }
    },
    {
      "type": "Feature",
      "id": "道北-19d0vhb",
      "geometry": {
        "type": "Point",
        "coordinates": [
          142.40741,
          43.793045
        ]
      },
      "properties": {
        "id": "道北-19d0vhb",
        "name": "大戸屋旭川永山店",
        "region": "道北",
        "category": "カフェ・レストラン",
        "color": "#db2777",
        "address": "北海道旭川市永山３条６丁目６３－２"
      }
    },
    {
      "type": "Feature",
      "id": "道北-046ru9l",
      "geometry": {
        "type": "Point",
        "coordinates": [
          142.360947,
          43.767296
        ]
      },
      "properties": {
        "id": "道北-046ru9l",
        "name": "たま 旭川買物公園通り店",
        "region": "道北",
        "category": "居酒屋",
        "color": "#be123c",
        "address": "北海道旭川市３条通８丁目４１９"
      }
    },
    {
      "type": "Feature",
      "id": "道北-1p4vl6z",
      "geometry": {
        "type": "Point",
        "coordinates": [
          142.359787,
          43.768265
        ]
      },
      "properties": {
        "id": "道北-1p4vl6z",
        "name": "ちょい飲み餃子酒場やをら",
        "region": "道北",
        "category": "居酒屋",
        "color": "#be123c",
        "address": "北海道旭川市３条通７丁目４２４－１"
      }
    },
    {
      "type": "Feature",
      "id": "道北-1jfrqi4",
      "geometry": {
        "type": "Point",
        "coordinates": [
          142.378662,
          43.798004
        ]
      },
      "properties": {
        "id": "道北-1jfrqi4",
        "name": "牛角旭川春光ドン・キホーテ店",
        "region": "道北",
        "category": "居酒屋",
        "color": "#be123c",
        "address": "北海道旭川市春光１条８丁目１－６５ ＭＡＧＡドン・キホーテ旭川店１階"
      }
    },
    {
      "type": "Feature",
      "id": "道北-00k6bgu",
      "geometry": {
        "type": "Point",
        "coordinates": [
          142.439346,
          43.813782
        ]
      },
      "properties": {
        "id": "道北-00k6bgu",
        "name": "串処えびす",
        "region": "道北",
        "category": "居酒屋",
        "color": "#be123c",
        "address": "北海道旭川市永山３条２０丁目５－２"
      }
    },
    {
      "type": "Feature",
      "id": "道北-121tii6",
      "geometry": {
        "type": "Point",
        "coordinates": [
          142.360886,
          43.770187
        ]
      },
      "properties": {
        "id": "道北-121tii6",
        "name": "串鳥旭川五・七店",
        "region": "道北",
        "category": "居酒屋",
        "color": "#be123c",
        "address": "北海道旭川市５条通７丁目 サクライビル１Ｆ"
      }
    },
    {
      "type": "Feature",
      "id": "道北-052ipt0",
      "geometry": {
        "type": "Point",
        "coordinates": [
          142.359192,
          43.767174
        ]
      },
      "properties": {
        "id": "道北-052ipt0",
        "name": "串鳥旭川本店",
        "region": "道北",
        "category": "居酒屋",
        "color": "#be123c",
        "address": "北海道旭川市２条通７丁目左１号 プラネット２・７ １Ｆ"
      }
    },
    {
      "type": "Feature",
      "id": "道北-1e60fdy",
      "geometry": {
        "type": "Point",
        "coordinates": [
          142.360489,
          43.766445
        ]
      },
      "properties": {
        "id": "道北-1e60fdy",
        "name": "山の猿 買物公園通り店",
        "region": "道北",
        "category": "居酒屋",
        "color": "#be123c",
        "address": "北海道旭川市２条通８丁目２２２－６"
      }
    },
    {
      "type": "Feature",
      "id": "道北-0ifqgl6",
      "geometry": {
        "type": "Point",
        "coordinates": [
          142.359787,
          43.768265
        ]
      },
      "properties": {
        "id": "道北-0ifqgl6",
        "name": "大衆酒場ニューキャッスル",
        "region": "道北",
        "category": "居酒屋",
        "color": "#be123c",
        "address": "北海道旭川市３条通７丁目４２４－１"
      }
    },
    {
      "type": "Feature",
      "id": "道北-085iaoo",
      "geometry": {
        "type": "Point",
        "coordinates": [
          142.325775,
          43.794594
        ]
      },
      "properties": {
        "id": "道北-085iaoo",
        "name": "和食 釧路ふく亭 旭川店",
        "region": "道北",
        "category": "居酒屋",
        "color": "#be123c",
        "address": "北海道旭川市緑町２３丁目２１６１－３ イオンモール旭川西１階"
      }
    },
    {
      "type": "Feature",
      "id": "道北-0jg7a0e",
      "geometry": {
        "type": "Point",
        "coordinates": [
          142.361877,
          43.768959
        ]
      },
      "properties": {
        "id": "道北-0jg7a0e",
        "name": "Ｂｅｅｒ Ｈｏｕｓｅ ＴＯＮＯＴＯ",
        "region": "道北",
        "category": "その他の飲食店（テイクアウト含む）",
        "color": "#e11d48",
        "address": "北海道旭川市４条通８丁目１７０３－５ アピスビル１階"
      }
    },
    {
      "type": "Feature",
      "id": "道北-1kzmtyt",
      "geometry": {
        "type": "Point",
        "coordinates": [
          142.399719,
          43.758244
        ]
      },
      "properties": {
        "id": "道北-1kzmtyt",
        "name": "カレーのちから旭川店",
        "region": "道北",
        "category": "その他の飲食店（テイクアウト含む）",
        "color": "#e11d48",
        "address": "北海道旭川市豊岡３条４丁目１番７"
      }
    },
    {
      "type": "Feature",
      "id": "道北-0f02thl",
      "geometry": {
        "type": "Point",
        "coordinates": [
          142.389893,
          43.733936
        ]
      },
      "properties": {
        "id": "道北-0f02thl",
        "name": "回転寿し トリトン旭神店",
        "region": "道北",
        "category": "その他の飲食店（テイクアウト含む）",
        "color": "#e11d48",
        "address": "北海道旭川市旭神３条５丁目１"
      }
    },
    {
      "type": "Feature",
      "id": "道北-0ajp1ra",
      "geometry": {
        "type": "Point",
        "coordinates": [
          142.353073,
          43.755482
        ]
      },
      "properties": {
        "id": "道北-0ajp1ra",
        "name": "回転寿司ちょいす旭川神楽店",
        "region": "道北",
        "category": "その他の飲食店（テイクアウト含む）",
        "color": "#e11d48",
        "address": "北海道旭川市神楽４条９丁目"
      }
    },
    {
      "type": "Feature",
      "id": "道北-03e1n38",
      "geometry": {
        "type": "Point",
        "coordinates": [
          142.356995,
          43.791248
        ]
      },
      "properties": {
        "id": "道北-03e1n38",
        "name": "回転寿司ちょいす旭川大町店",
        "region": "道北",
        "category": "その他の飲食店（テイクアウト含む）",
        "color": "#e11d48",
        "address": "北海道旭川市大町３条８丁目"
      }
    },
    {
      "type": "Feature",
      "id": "道北-1u4hhr5",
      "geometry": {
        "type": "Point",
        "coordinates": [
          142.401749,
          43.759983
        ]
      },
      "properties": {
        "id": "道北-1u4hhr5",
        "name": "回転寿司ちょいす旭川豊岡店",
        "region": "道北",
        "category": "その他の飲食店（テイクアウト含む）",
        "color": "#e11d48",
        "address": "北海道旭川市豊岡４条４丁目"
      }
    },
    {
      "type": "Feature",
      "id": "道北-1fl97jt",
      "geometry": {
        "type": "Point",
        "coordinates": [
          142.374832,
          43.763565
        ]
      },
      "properties": {
        "id": "道北-1fl97jt",
        "name": "リラクゼーション＆ボディーケアＰｅｔｉｔＬａｐｉｎ",
        "region": "道北",
        "category": "理美容",
        "color": "#a21caf",
        "address": "北海道旭川市３条通１７丁目３３８番地３ ＰｅｔｉｔＬａｐｉｎ"
      }
    },
    {
      "type": "Feature",
      "id": "道央-17ihl3x",
      "geometry": {
        "type": "Point",
        "coordinates": [
          142.184982,
          43.525932
        ]
      },
      "properties": {
        "id": "道央-17ihl3x",
        "name": "マックスバリュ芦別店",
        "region": "道央",
        "category": "スーパー",
        "color": "#ea580c",
        "address": "北海道芦別市北４条西１丁目３番地"
      }
    },
    {
      "type": "Feature",
      "id": "道央-19wk65z",
      "geometry": {
        "type": "Point",
        "coordinates": [
          142.187759,
          43.518185
        ]
      },
      "properties": {
        "id": "道央-19wk65z",
        "name": "ラルズプラザ芦別店",
        "region": "道央",
        "category": "スーパー",
        "color": "#ea580c",
        "address": "北海道芦別市北１条東１丁目５番地５"
      }
    },
    {
      "type": "Feature",
      "id": "道央-0biduwz",
      "geometry": {
        "type": "Point",
        "coordinates": [
          142.187759,
          43.518185
        ]
      },
      "properties": {
        "id": "道央-0biduwz",
        "name": "ラルズマート芦別店",
        "region": "道央",
        "category": "スーパー",
        "color": "#ea580c",
        "address": "北海道芦別市北１条東１丁目５番地５"
      }
    },
    {
      "type": "Feature",
      "id": "道央-13wmctp",
      "geometry": {
        "type": "Point",
        "coordinates": [
          142.17717,
          43.526321
        ]
      },
      "properties": {
        "id": "道央-13wmctp",
        "name": "セイコーマート芦別北",
        "region": "道央",
        "category": "コンビニ",
        "color": "#2563eb",
        "address": "北海道芦別市北５条西３丁目１番地の１"
      }
    },
    {
      "type": "Feature",
      "id": "道央-0kjpmve",
      "geometry": {
        "type": "Point",
        "coordinates": [
          142.186279,
          43.522499
        ]
      },
      "properties": {
        "id": "道央-0kjpmve",
        "name": "セイコーマート芦別北３条",
        "region": "道央",
        "category": "コンビニ",
        "color": "#2563eb",
        "address": "北海道芦別市北３条東１丁目３番地６"
      }
    },
    {
      "type": "Feature",
      "id": "道央-14pkgln",
      "geometry": {
        "type": "Point",
        "coordinates": [
          142.194626,
          43.491768
        ]
      },
      "properties": {
        "id": "道央-14pkgln",
        "name": "セイコーマート上芦別",
        "region": "道央",
        "category": "コンビニ",
        "color": "#2563eb",
        "address": "北海道芦別市上芦別町１０５番地"
      }
    },
    {
      "type": "Feature",
      "id": "道央-0avhqnk",
      "geometry": {
        "type": "Point",
        "coordinates": [
          142.185837,
          43.52615
        ]
      },
      "properties": {
        "id": "道央-0avhqnk",
        "name": "ツルハドラッグ芦別店",
        "region": "道央",
        "category": "ドラッグストア・薬局",
        "color": "#059669",
        "address": "北海道芦別市北４条東１丁目９番地１"
      }
    },
    {
      "type": "Feature",
      "id": "道央-1so2mhh",
      "geometry": {
        "type": "Point",
        "coordinates": [
          142.189743,
          43.514076
        ]
      },
      "properties": {
        "id": "道央-1so2mhh",
        "name": "ツルハドラッグ芦別南店",
        "region": "道央",
        "category": "ドラッグストア・薬局",
        "color": "#059669",
        "address": "北海道芦別市南２条東１丁目５番２号"
      }
    },
    {
      "type": "Feature",
      "id": "道央-1j5xgq9",
      "geometry": {
        "type": "Point",
        "coordinates": [
          142.186676,
          43.525928
        ]
      },
      "properties": {
        "id": "道央-1j5xgq9",
        "name": "ＤＣＭニコット芦別店",
        "region": "道央",
        "category": "ホームセンター・家具・家電",
        "color": "#7c3aed",
        "address": "北海道芦別市北４条東１丁目８番地"
      }
    },
    {
      "type": "Feature",
      "id": "道央-1jrnjm0",
      "geometry": {
        "type": "Point",
        "coordinates": [
          140.685333,
          42.80262
        ]
      },
      "properties": {
        "id": "道央-1jrnjm0",
        "name": "Ａマートニセコ店",
        "region": "道央",
        "category": "スーパー",
        "color": "#ea580c",
        "address": "北海道虻田郡ニセコ町字本通１０５番地９"
      }
    },
    {
      "type": "Feature",
      "id": "道央-0y8na65",
      "geometry": {
        "type": "Point",
        "coordinates": [
          140.685333,
          42.80262
        ]
      },
      "properties": {
        "id": "道央-0y8na65",
        "name": "セイコーマートニセコ",
        "region": "道央",
        "category": "コンビニ",
        "color": "#2563eb",
        "address": "北海道虻田郡ニセコ町字本通１３７番５"
      }
    },
    {
      "type": "Feature",
      "id": "道央-1admtwf",
      "geometry": {
        "type": "Point",
        "coordinates": [
          140.638992,
          42.829296
        ]
      },
      "properties": {
        "id": "道央-1admtwf",
        "name": "ハマナスクラブホテル甘露の森",
        "region": "道央",
        "category": "コンビニ",
        "color": "#2563eb",
        "address": "北海道虻田郡ニセコ町ニセコ４１５番地１９号"
      }
    },
    {
      "type": "Feature",
      "id": "道央-0xkufr5",
      "geometry": {
        "type": "Point",
        "coordinates": [
          140.705185,
          42.797264
        ]
      },
      "properties": {
        "id": "道央-0xkufr5",
        "name": "サツドラニセコ元町店",
        "region": "道央",
        "category": "ドラッグストア・薬局",
        "color": "#059669",
        "address": "北海道虻田郡ニセコ町字元町７４－１６"
      }
    },
    {
      "type": "Feature",
      "id": "道央-0r67rui",
      "geometry": {
        "type": "Point",
        "coordinates": [
          140.638992,
          42.829296
        ]
      },
      "properties": {
        "id": "道央-0r67rui",
        "name": "Ｔａｊ Ｍａｈａｌ ニセコアンヌプリ店",
        "region": "道央",
        "category": "その他の飲食店（テイクアウト含む）",
        "color": "#e11d48",
        "address": "北海道虻田郡ニセコ町字ニセコ４２９－４５"
      }
    },
    {
      "type": "Feature",
      "id": "道央-14scnph",
      "geometry": {
        "type": "Point",
        "coordinates": [
          140.936996,
          42.795902
        ]
      },
      "properties": {
        "id": "道央-14scnph",
        "name": "Ａマートきもべつ店",
        "region": "道央",
        "category": "スーパー",
        "color": "#ea580c",
        "address": "北海道虻田郡喜茂別町字喜茂別２２番地５７"
      }
    },
    {
      "type": "Feature",
      "id": "道央-0z1kmps",
      "geometry": {
        "type": "Point",
        "coordinates": [
          140.936996,
          42.795902
        ]
      },
      "properties": {
        "id": "道央-0z1kmps",
        "name": "セイコーマート喜茂別",
        "region": "道央",
        "category": "コンビニ",
        "color": "#2563eb",
        "address": "北海道虻田郡喜茂別町字喜茂別３５５番地４５"
      }
    },
    {
      "type": "Feature",
      "id": "道央-1q1c3jv",
      "geometry": {
        "type": "Point",
        "coordinates": [
          140.884094,
          42.862892
        ]
      },
      "properties": {
        "id": "道央-1q1c3jv",
        "name": "Ａマートきょうごく店",
        "region": "道央",
        "category": "スーパー",
        "color": "#ea580c",
        "address": "北海道虻田郡京極町字京極７００番地"
      }
    },
    {
      "type": "Feature",
      "id": "道央-0wb2ttd",
      "geometry": {
        "type": "Point",
        "coordinates": [
          140.884094,
          42.862892
        ]
      },
      "properties": {
        "id": "道央-0wb2ttd",
        "name": "セイコーマート京極",
        "region": "道央",
        "category": "コンビニ",
        "color": "#2563eb",
        "address": "北海道虻田郡京極町字京極５３５番地"
      }
    },
    {
      "type": "Feature",
      "id": "道央-135a1vb",
      "geometry": {
        "type": "Point",
        "coordinates": [
          140.751724,
          42.9035
        ]
      },
      "properties": {
        "id": "道央-135a1vb",
        "name": "コープさっぽろ 倶知安店",
        "region": "道央",
        "category": "スーパー",
        "color": "#ea580c",
        "address": "北海道虻田郡倶知安町北３西４－３－２"
      }
    },
    {
      "type": "Feature",
      "id": "道央-0osntt5",
      "geometry": {
        "type": "Point",
        "coordinates": [
          140.750351,
          42.887936
        ]
      },
      "properties": {
        "id": "道央-0osntt5",
        "name": "マックスバリュ倶知安店",
        "region": "道央",
        "category": "スーパー",
        "color": "#ea580c",
        "address": "北海道虻田郡倶知安町南１１条西１丁目３０番"
      }
    },
    {
      "type": "Feature",
      "id": "道央-0jrqp3e",
      "geometry": {
        "type": "Point",
        "coordinates": [
          140.751358,
          42.9002
        ]
      },
      "properties": {
        "id": "道央-0jrqp3e",
        "name": "ラッキー倶知安店",
        "region": "道央",
        "category": "スーパー",
        "color": "#ea580c",
        "address": "北海道虻田郡倶知安町南２条西１丁目１番地１１"
      }
    },
    {
      "type": "Feature",
      "id": "道央-185l19k",
      "geometry": {
        "type": "Point",
        "coordinates": [
          140.705307,
          42.859142
        ]
      },
      "properties": {
        "id": "道央-185l19k",
        "name": "セイコーマートニセコひらふ",
        "region": "道央",
        "category": "コンビニ",
        "color": "#2563eb",
        "address": "北海道虻田郡倶知安町ニセコひらふ１条３丁目３番８号"
      }
    },
    {
      "type": "Feature",
      "id": "道央-1dm67vu",
      "geometry": {
        "type": "Point",
        "coordinates": [
          140.752563,
          42.880424
        ]
      },
      "properties": {
        "id": "道央-1dm67vu",
        "name": "セイコーマート倶知安高砂",
        "region": "道央",
        "category": "コンビニ",
        "color": "#2563eb",
        "address": "北海道虻田郡倶知安町字高砂８４番地７"
      }
    },
    {
      "type": "Feature",
      "id": "道央-0om4iyc",
      "geometry": {
        "type": "Point",
        "coordinates": [
          140.752258,
          42.893124
        ]
      },
      "properties": {
        "id": "道央-0om4iyc",
        "name": "セイコーマート倶知安南８条",
        "region": "道央",
        "category": "コンビニ",
        "color": "#2563eb",
        "address": "北海道虻田郡倶知安町南８条東１丁目１－１０"
      }
    },
    {
      "type": "Feature",
      "id": "道央-15irebe",
      "geometry": {
        "type": "Point",
        "coordinates": [
          140.754562,
          42.901775
        ]
      },
      "properties": {
        "id": "道央-15irebe",
        "name": "セイコーマート倶知安北１条",
        "region": "道央",
        "category": "コンビニ",
        "color": "#2563eb",
        "address": "北海道虻田郡倶知安町北１条東１丁目３番地"
      }
    },
    {
      "type": "Feature",
      "id": "道央-0nr3b5g",
      "geometry": {
        "type": "Point",
        "coordinates": [
          140.763779,
          42.903072
        ]
      },
      "properties": {
        "id": "道央-0nr3b5g",
        "name": "セイコーマート倶知安北３条",
        "region": "道央",
        "category": "コンビニ",
        "color": "#2563eb",
        "address": "北海道虻田郡倶知安町北３条東５丁目５番地"
      }
    },
    {
      "type": "Feature",
      "id": "道央-0ysvg65",
      "geometry": {
        "type": "Point",
        "coordinates": [
          140.748566,
          42.903728
        ]
      },
      "properties": {
        "id": "道央-0ysvg65",
        "name": "セブンイレブン倶知安基町店",
        "region": "道央",
        "category": "コンビニ",
        "color": "#2563eb",
        "address": "北海道虻田郡倶知安町北３条西２丁目６番地"
      }
    },
    {
      "type": "Feature",
      "id": "道央-0rf6ptr",
      "geometry": {
        "type": "Point",
        "coordinates": [
          140.753113,
          42.898327
        ]
      },
      "properties": {
        "id": "道央-0rf6ptr",
        "name": "セブンイレブン倶知安南四条店",
        "region": "道央",
        "category": "コンビニ",
        "color": "#2563eb",
        "address": "北海道虻田郡倶知安町南四条東一丁目−１"
      }
    },
    {
      "type": "Feature",
      "id": "道央-09fmxlj",
      "geometry": {
        "type": "Point",
        "coordinates": [
          140.75827,
          42.900501
        ]
      },
      "properties": {
        "id": "道央-09fmxlj",
        "name": "セブンイレブン俱知安役場前店",
        "region": "道央",
        "category": "コンビニ",
        "color": "#2563eb",
        "address": "北海道虻田郡倶知安町南１条東３丁目"
      }
    },
    {
      "type": "Feature",
      "id": "道央-0h0pgiz",
      "geometry": {
        "type": "Point",
        "coordinates": [
          140.702469,
          42.860001
        ]
      },
      "properties": {
        "id": "道央-0h0pgiz",
        "name": "サツドラニセコひらふ店",
        "region": "道央",
        "category": "ドラッグストア・薬局",
        "color": "#059669",
        "address": "北海道虻田郡倶知安町ニセコひらふ１条３丁目６番２４号 Ｈｉｒａｆｕ１８８ １階"
      }
    },
    {
      "type": "Feature",
      "id": "道央-1e90ilo",
      "geometry": {
        "type": "Point",
        "coordinates": [
          140.753174,
          42.894386
        ]
      },
      "properties": {
        "id": "道央-1e90ilo",
        "name": "サツドラ倶知安店",
        "region": "道央",
        "category": "ドラッグストア・薬局",
        "color": "#059669",
        "address": "北海道虻田郡倶知安町南７条東１丁目１－９"
      }
    },
    {
      "type": "Feature",
      "id": "道央-0udb9me",
      "geometry": {
        "type": "Point",
        "coordinates": [
          140.751434,
          42.901051
        ]
      },